datetime,date,year,month,date,day,time,city,"location (land, in space, at sea, in flight)",state,country,country name,shape,duration (seconds),duration (hours/min),comments,date posted,latitude,longitude,sightings
06/06/1958 18:45:00,1958-06-06,1958,Jun,06,Friday,18:45:00,sydney (nsw&#44 australia),land,nsw,au,Australia,,2700,45 min,In the winter months of 1958 on a clear winter night while looking at the southern cross&#44 a star formation I now know is called the Cru,5/13/2003,-33.861481,151.205475,1
07/29/1960 19:30:00,1960-07-29,1960,Jul,29,Friday,19:30:00,melbourne (australia),land,vic,au,Australia,triangle,180,3 min,1960 @ 30DEG ABOVE HORIZON 3 TRIANGULAR OBJECT IN SKY WITH ORANGE TAILS BEHIND ALL  FLYING @ LEVEL,12/12/2011,-37.813938,144.963425,1
03/29/1963 20:00:00,1963-03-29,1963,Mar,29,Friday,20:00:00,clunes/maryborough (near) (australia),land,vic,au,Australia,disk,1.5,hours,Same event witnessed in Clunes Australia and Clunies in France ((NUFORC Note:  More information requested of witness.  PD)),4/16/2005,-37.289293,143.762161,1
07/21/1996 01:30:00,1996-07-21,1996,Jul,21,Sunday,1:30:00,newtown&#44 tas (australia),land,tas,au,Australia,egg,120,under 2 minutes,I was in my room&#44 and I saw to lights in the sky&#44 they hovered over me for a few minutes&#44 and then shoot off toward the mountain.,7/5/1999,-42.851178,147.30231,1
06/01/1968 00:00:00,1968-06-01,1968,Jun,01,Saturday,0:00:00,brisbane (australia),land,qld,au,Australia,triangle,300,5 minutes,The UFO was black&#44 with red lights and strange markings on it.,12/12/2009,-27.47101,153.024292,1
02/05/1972 19:00:00,1972-02-05,1972,Feb,05,Saturday,19:00:00,hoppers crossing (australia),land,vic,au,Australia,oval,600,10min,three u.f.o in triangular formation 500m apart moving slowly sidewards then rapidly then 90deg upward and gone,11/20/2001,-37.869,144.693,1
07/29/2012 18:40:00,2012-07-29,2012,Jul,29,Sunday,18:40:00,cleveland (australia),land,tas,au,Australia,circle,480,8 minutes,Three pink/orange spheres spotted over Cleveland&#44 Queensland&#44 Australia,8/5/2012,-41.8,147.4,1
12/07/2007 20:55:00,2007-12-07,2007,Dec,07,Friday,20:55:00,launceston (australia),land,tas,au,Australia,,3600,60 minutes,Ufos seen from Australian suburb&#44 two days running.,4/17/2008,-41.438759,147.134674,1
07/17/2009 20:30:00,2009-07-17,2009,Jul,17,Friday,20:30:00,launceston (australia),land,tas,au,Australia,light,420,5-7 min,Slow moving &#44 bright orange starlike object at high altitude.  ((NUFORC Note:  Not a sighting of the ISS.  PD)),8/5/2009,-41.438759,147.134674,1
07/15/1974 12:00:00,1974-07-15,1974,Jul,15,Monday,12:00:00,cairns (australia),land,qld,au,Australia,cigar,3600,approx. 1hr,7/ 74 - Cairns Ql d. Australia - Cigar  - 1hr - Watched silver ship stationary in sky for 1hr then took off at great speed into the dis,6/9/2009,-16.92304,145.766251,1
02/23/1975 05:00:00,1975-02-23,1975,Feb,23,Sunday,5:00:00,ballarat (australia),land,vic,au,Australia,unknown,120,2 mins,many years ago my brother and i heard a &#39whirling&#39 loud sound maybe 10&#39 above our heads one early morning but could&#39nt see anythingt,6/12/2002,-37.56266,143.862579,1
03/06/1975 02:00:00,1975-03-06,1975,Mar,06,Thursday,2:00:00,melbourne (vic&#44 australia),land,vic,au,Australia,diamond,1800,30 minutes,The object my cousin and i saw was hexaganal in shape&#44orange in colour&#44hovering low and  at a slow velocity. It appeared to be about a,12/20/2000,-37.813938,144.963425,1
04/01/1975 20:15:00,1975-04-01,1975,Apr,01,Tuesday,20:15:00,mildura&#44 victoria (australia),land,vic,au,Australia,disk,1200,20 minutes,A Black Disc with lights going around,7/14/2013,-34.206301,142.135832,1
06/16/1975 00:00:00,1975-06-16,1975,Jun,16,Monday,0:00:00,moe (victoria) (australia),land,vic,au,Australia,disk,4,4 seconds,1970s Moe Victoria Australia&#44 Edward Hunter Reserve UFO not a hoax.,3/21/2003,-38.17828,146.260986,1
10/12/1975 01:00:00,1975-10-12,1975,Oct,12,Sunday,1:00:00,perth (w. of; southern cross) (western australia),land,wa,au,Australia,fireball,900,15 minutes,fire ball and min min,6/18/2004,-31.95224,115.861397,1
03/18/2011 20:13:00,2011-03-18,2011,Mar,18,Friday,20:13:00,george town (australia),land,tas,au,Australia,circle,480,8 minutes,Green circular light flying down the river&#44 but it was dead silent and un-explained.,3/23/2011,-41.105591,146.826065,1
01/07/1976 23:00:00,1976-01-07,1976,Jan,07,Wednesday,23:00:00,stansbury (south australia),land,sa,au,Australia,rectangle,180,2 to 3 minutes,It was a clear night&#44 two people witnessed the sighting&#44no other aircraft were in the vicinity&#44the size was stunning.,2/22/2002,-34.911079,137.799026,1
07/24/2005 22:50:00,2005-07-24,2005,Jul,24,Sunday,22:50:00,meeniyan (australia),land,vic,au,Australia,cigar,50,40/50 sec,24/7/05 meeniyan vic . cigar shaped object orange lights  50 seconds 1/8/05,9/2/2005,-38.576889,146.019333,1
12/10/1976 19:30:00,1976-12-10,1976,Dec,10,Friday,19:30:00,sydney (nsw&#44 australia),land,nsw,au,Australia,light,3,3 seconds app.,Two objects of light shoot silently across the night sky.,12/23/2002,-33.861481,151.205475,1
01/10/1977 11:00:00,1977-01-10,1977,Jan,10,Monday,11:00:00,adelaide (south australia),land,sa,au,Australia,disk,30,30 seconds,Several people  witnessed positive UFO on clear day.,10/7/2003,-34.928661,138.598633,1
02/01/1978 21:00:00,1978-02-01,1978,Feb,01,Wednesday,21:00:00,perth (western australia),land,wa,au,Australia,sphere,120,2 minutes,Bright orange glow. Stationary.,1/28/1999,-31.95224,115.861397,1
03/04/2012 23:00:00,2012-03-04,2012,Mar,04,Sunday,23:00:00,gippsland (australia),land,vic,au,Australia,rectangle,10,10 seconds,Yellow/golden&#44 large&#44 rectangular &#44 slow moving object with stars/lights in and around it.,3/13/2012,-38.266702,146.741207,1
03/20/1979 22:45:00,1979-03-20,1979,Mar,20,Tuesday,22:45:00,sydney (nsw&#44 australia),land,nsw,au,Australia,circle,5,5 seconds,Green Ball travelling E to  W 1&#44500  altitude. Entered cloud&#44 changed direction.,7/1/2002,-33.861481,151.205475,1
01/01/1980 19:00:00,1980-01-01,1980,Jan,01,Tuesday,19:00:00,yorkeys knob (north of cairns) (qld&#44 australia)),land,qld,au,Australia,other,600,2 - 10 minutes,1 slow moving UFO rising from East (ocean) to West&#44 on straight path&#44 rectangular/cylindrical shape.,6/20/2005,-16.816667,145.716667,1
12/23/1980 00:00:00,1980-12-23,1980,Dec,23,Tuesday,0:00:00,cairns (qld&#44 australia),land,qld,au,Australia,disk,600,10mins,I remember it was close to Christmas and I had preyed to God for months and months every night to please do something about my abusive,12/2/2000,-16.92304,145.766251,1
01/15/1981 13:00:00,1981-01-15,1981,Jan,15,Thursday,13:00:00,canberra (australia),land,act,au,Australia,disk,3600,1 hour,silver round stationary 50&#44000 feet 1 hour cesna in size robot in appearence 1981 canberra australia 6 saw 1pm clear day.,2/14/2006,-35.27603,149.13435,1
04/20/1982 20:00:00,1982-04-20,1982,Apr,20,Tuesday,20:00:00,brisbane (qld&#44 australia),land,qld,au,Australia,light,300,approx: hour and a half,HBCCUFO CANADIAN REPORT:  Object breaks into parts followed by military helicopters.,3/17/2004,-27.47101,153.024292,1
07/01/1982 00:00:00,1982-07-01,1982,Jul,01,Thursday,0:00:00,gold coast (australia),land,qld,au,Australia,circle,10,10 sec,this i clearly remeber and I am a focased business man in Australia,12/12/2011,-28.00029,153.430878,1
04/15/1983 21:00:00,1983-04-15,1983,Apr,15,Friday,21:00:00,brisbane (qld&#44 australia),land,qld,au,Australia,changing,37800,1 1/2 hours,A brilliant blue-white light performs amazing acrobatics for an hour and a half over the city of Brisbane.,8/16/2002,-27.47101,153.024292,1
06/30/1983 20:00:00,1983-06-30,1983,Jun,30,Thursday,20:00:00,dunmore (nsw&#44 australia),land,nsw,au,Australia,diamond,2400,30 - 40 minutes,Mother Craft that released 3 Smaller Craft - Witness of the Craft leaving the atmosphere,8/16/2002,-38.15,141.883333,1
09/01/1983 21:00:00,1983-09-01,1983,Sep,01,Thursday,21:00:00,rosedale&#44 queensland  (australia),land,qld,au,Australia,light,600,10 minutes,lights in Milky Way&#44 changed directions&#44 very low very bright&#44 no night noises&#44 only a hum very bright light ran away...,7/5/1999,-24.628035,151.91414,1
09/07/1983 19:30:00,1983-09-07,1983,Sep,07,Wednesday,19:30:00,sydney (australia),land,nsw,au,Australia,light,15,15 seconds,Moving light in Sydney&#44 Australia,3/13/2012,-33.861481,151.205475,1
06/01/1984 00:00:00,1984-06-01,1984,Jun,01,Friday,0:00:00,perth (western australia),land,wa,au,Australia,,1200,20 minutes,I encountered three small grey creatures and a rolling ball of light while walking at a near by lake.,7/1/2002,-31.95224,115.861397,1
11/15/2003 00:00:00,2003-11-15,2003,Nov,15,Saturday,0:00:00,moe (australia),land,vic,au,Australia,light,300,5 mins,a moving object seen in the distant stars,3/2/2004,-38.17828,146.260986,1
03/07/2013 20:30:00,2013-03-07,2013,Mar,07,Thursday,20:30:00,belmont (australia),land,vic,au,Australia,light,180,2-3 minutes,Bright light.  Seen for 2-3 min left at high speed.  ((NUFORC Note:  Possible sighting of the ISS&#44 we wonder..  PD)),4/12/2013,-38.166667,144.35,1
01/19/2011 22:35:00,2011-01-19,2011,Jan,19,Wednesday,22:35:00,geelong (australia),land,vic,au,Australia,light,60,within 60 seconds,faint light dropping towards the horizon then shooting backwards and dissapearing.,1/31/2011,-38.153461,144.358093,1
10/11/1986 20:30:00,1986-10-11,1986,Oct,11,Saturday,20:30:00,alice springs  (nt&#44 australia),land,nt,au,Australia,,20,20 seconds,Being  of light reported&#44Jesus or another messenger&#33,1/19/2005,-23.697479,133.883621,1
04/15/1987 05:00:00,1987-04-15,1987,Apr,15,Wednesday,5:00:00,perth (australia),land,wa,au,Australia,sphere,5,5 seconds,On a warm fresh morning in the summer of 87 i saw it suspended off the ground approx 1000yrds from me next to a main digital communicat,10/30/2006,-31.95224,115.861397,1
10/15/1987 21:00:00,1987-10-15,1987,Oct,15,Thursday,21:00:00,cheltenham (melbourne) (victoria) (australia),land,vic,au,Australia,circle,600,10 minutes,Sighting of the Mother ship &quot;UFO&quot; Charman Rd Cheltenham Vic &#44 Australia 1987-1988,11/20/2013,-37.966667,145.066667,1
12/06/1987 02:00:00,1987-12-06,1987,Dec,06,Sunday,2:00:00,newcastle (australia),land,nsw,au,Australia,circle,300,5 min,stop up hill in car take photo of car and this was on film zoomed in on computer 19 years later and seen this looks like ufo over car w,10/30/2006,-32.927792,151.784485,1
01/26/1988 23:00:00,1988-01-26,1988,Jan,26,Tuesday,23:00:00,sydney (nsw&#44 australia),land,nsw,au,Australia,cigar,180,3 minutes,UFO Encounter Close 26th January 1988  Pre Olympic Site Sydney 2000 .,4/27/2004,-33.861481,151.205475,1
06/01/1988 01:15:00,1988-06-01,1988,Jun,01,Wednesday,1:15:00,melbourne (vic&#44 australia),land,vic,au,Australia,fireball,600,8 - 10 min,I can&#44t exactly remember the date.....but it was early saturday morning at about 1.15 am......My friend and I were going home after a n,2/18/2001,-37.813938,144.963425,1
05/02/2003 06:35:00,2003-05-02,2003,May,02,Friday,6:35:00,sale (australia),land,vic,au,Australia,light,6,6seconds,I witnessed 2 objects 5 minutes apart moving at a 45 degree incline then do a right angle turn into another 45 degree incline&#44 the inte,7/16/2003,-38.11095,147.068024,1
10/12/1988 16:30:00,1988-10-12,1988,Oct,12,Wednesday,16:30:00,melbourne (vic&#44 australia),land,vic,au,Australia,cigar,900,15 min&#39s,Large cigar shaped craft&#44flying sideways&#44over bay&#44toward&#39s our car.,9/29/2004,-37.813938,144.963425,1
02/23/1990 08:30:00,1990-02-23,1990,Feb,23,Friday,8:30:00,queensland (australia),land,qld,au,Australia,other,600,10 mins,Two animal shaped crafts fly over the beach in Queensland on an westerly breeze,10/11/2005,-20.917574,142.702796,1
06/01/1990 00:30:00,1990-06-01,1990,Jun,01,Friday,0:30:00,townsville (australia),land,qld,au,Australia,teardrop,900,15min,Craft invades no fly military airspace undetected by radar,5/15/2006,-19.26639,146.805695,1
06/01/1990 02:00:00,1990-06-01,1990,Jun,01,Friday,2:00:00,sydney (australia),land,nsw,au,Australia,oval,600,10 min,1990  sighting sydney australia reported 2008,10/31/2008,-33.861481,151.205475,1
11/15/1990 23:00:00,1990-11-15,1990,Nov,15,Thursday,23:00:00,perth (western australia),land,wa,au,Australia,light,180,3 minutes,Two lights travelling toward each other.,11/16/2002,-31.95224,115.861397,1
08/24/1991 20:00:00,1991-08-24,1991,Aug,24,Saturday,20:00:00,newcastle (australia),land,nsw,au,Australia,unknown,60,1 minute,see pdf download&#44 OR download pdf at www.streamsystems.com.au,6/12/2007,-32.927792,151.784485,1
12/12/1991 23:30:00,1991-12-12,1991,Dec,12,Thursday,23:30:00,wollongong (nsw&#44 australia),land,nsw,au,Australia,light,240,4 minutes,two star light  UFO&#39s travelling with my car on either side and took off in a unisin in a spiral formation,8/5/2001,-34.424,150.893448,1
04/22/1992 02:00:00,1992-04-22,1992,Apr,22,Wednesday,2:00:00,canberra (australia),land,act,au,Australia,cone,120,2 minutes,cone shaped craft hovering in mid-air in Canberra&#44 Australia,10/30/2006,-35.27603,149.13435,1
05/21/1992 20:34:00,1992-05-21,1992,May,21,Thursday,20:34:00,melbourne (vic&#44 australia),land,vic,au,Australia,other,720,12 min,It was fork shaped with 3 points. the tips were blue. three lights ran down each point. first red. then green&#44 then blue. as soon as we,1/28/1999,-37.813938,144.963425,1
07/11/2010 05:10:00,2010-07-11,2010,Jul,11,Sunday,5:10:00,drouin west (australia),land,vic,au,Australia,circle,3,2-3 seconds,A soft green round shape&#44 full moon size&#44 hazy edges&#44 pre dawn sky low on the horizon&#44 travelling fast like a falling star speed.,11/21/2010,-38.1,145.866667,1
10/09/1992 12:00:00,1992-10-09,1992,Oct,09,Friday,12:00:00,perth (western australia),land,wa,au,Australia,triangle,30,30 seconds,i saw three traingular ufos&#44 the one in the middle was bigger than the other ones. they didn&#39t stay for very long. me and me brother we,12/16/2005,-31.95224,115.861397,1
12/01/1992 20:00:00,1992-12-01,1992,Dec,01,Tuesday,20:00:00,casterton (victoria) (australia),land,vic,au,Australia,oval,60,i minute,Driving I saw something in the sky&#44 I looked up abit&#44 then it sort of flashed away&#44 and was gone.,9/19/2002,-37.584888,141.402969,1
01/15/1993 20:00:00,1993-01-15,1993,Jan,15,Friday,20:00:00,brisbane (qld&#44 australia),land,qld,au,Australia,formation,60,1 minute or so,Bright white lights in the sky in formation of square. 9 lights in 3 rows of 3.,8/28/2002,-27.47101,153.024292,1
02/20/1993 20:00:00,1993-02-20,1993,Feb,20,Saturday,20:00:00,melbourne (vic&#44 australia),land,vic,au,Australia,disk,480,8min,over the nullabour australia,8/5/2001,-37.813938,144.963425,1
04/20/2012 20:30:00,2012-04-20,2012,Apr,20,Friday,20:30:00,maffra (australia),land,vic,au,Australia,disk,300,5 minutes,Large bright orange light,5/15/2013,-37.971321,146.983658,1
05/19/2001 00:12:00,2001-05-19,2001,May,19,Saturday,0:12:00,stratford  (australia),land,vic,au,Australia,triangle,180,3 min,a HUGE triangle with pods on yellow streams going down to the ground.,8/5/2001,-37.963402,147.082596,1
08/07/1994 19:00:00,1994-08-07,1994,Aug,07,Sunday,19:00:00,northern nsw (nsw&#44 australia),land,nsw,au,Australia,circle,120,1-2 minutes,Silent golden globe executing radical manuvers before accelerating up into space.,2/8/2005,-33.899548,150.703472,1
10/06/2012 10:45:00,2012-10-06,2012,Oct,06,Saturday,10:45:00,emerald (australia),land,vic,au,Australia,light,900,10-15 minutes,12 to 14 orange lights travelling from west to south.,10/30/2012,-37.931671,145.440933,1
07/07/1995 00:00:00,1995-07-07,1995,Jul,07,Friday,0:00:00,melbourne (vic&#44 australia),land,vic,au,Australia,fireball,2,2 seconds,Huge fireball that lit up the sky&#44 and lit up the surroundings. It looked like a shooting star. But it was so bright and in our atmosph,5/24/1999,-37.813938,144.963425,1
09/30/1995 23:15:00,1995-09-30,1995,Sep,30,Saturday,23:15:00,canberra (australia),land,act,au,Australia,light,60,1 minute,Strange light seen over Canberra Australia,10/27/2004,-35.27603,149.13435,1
05/14/2012 00:00:00,2012-05-14,2012,May,14,Monday,0:00:00,east bentleigh (australia),land,vic,au,Australia,light,2,2 secs,Small round light fell,5/13/2012,-37.921245,145.05974,1
05/12/2006 22:40:00,2006-05-12,2006,May,12,Friday,22:40:00,kalimna (australia),land,vic,au,Australia,fireball,30,30 seconds,I was watching a movie late at night on TV when all the power and lights went off. I went outside and saw a green thing. I though it wa,10/30/2006,-37.883333,147.95,1
02/10/1996 11:00:00,1996-02-10,1996,Feb,10,Saturday,11:00:00,alice springs  (nt&#44 australia),land,nt,au,Australia,other,5,5 seconds,A humanoid dwarf/troll/grey alien type thing walked up the steps of a pasta restataunt I was in and stared at me.,11/17/1999,-23.697479,133.883621,1
04/15/1996 21:30:00,1996-04-15,1996,Apr,15,Monday,21:30:00,perth (australia),land,wa,au,Australia,triangle,600,10 minutes,Triangular object with smaller objects joining with it. 3 witnesses.,5/15/2006,-31.95224,115.861397,1
04/18/1996 17:40:00,1996-04-18,1996,Apr,18,Thursday,17:40:00,brisbane (near) (queensland&#44 australia),land,qld,au,Australia,,18000,5  hours  plus,Five hours plus interaction with an &quot;invisible entity&quot;.  Four persons directly in contact.  Two peripheral witnesses.  Numerous physica,1/28/1999,-27.47101,153.024292,1
03/14/2005 15:45:00,2005-03-14,2005,Mar,14,Monday,15:45:00,meredith (australia),land,vic,au,Australia,disk,600,5-10 mins,I was driving down a long stretch of country road heading home from shopping&#44 when my son said&quot;look mum&#44 whats that in the paddock&#33 I t,2/14/2006,-37.84539,144.077377,1
03/14/2005 15:45:00,2005-03-14,2005,Mar,14,Monday,15:45:00,meredith (australia),land,vic,au,Australia,disk,600,5-10 minutes,I&#39m just letting you know i when i pulled over i drew the ufo i saw. So if you&#39d like it just let me know how i can get it to you&#44 Your,2/14/2006,-37.84539,144.077377,1
06/07/1996 22:30:00,1996-06-07,1996,Jun,07,Friday,22:30:00,sydney (nsw&#44 australia),land,nsw,au,Australia,triangle,120,2mins,Saw two dark triangular shaped objects that hovered for a couple of minutes before taking off at great speed,4/2/1999,-33.861481,151.205475,1
05/12/2001 20:35:00,2001-05-12,2001,May,12,Saturday,20:35:00,mount gambier  (australia),land,vic,au,Australia,sphere,300,5 mins,Two orange balls one large one small chaseing each other playing games.Small ball then disappeared into large ball then took off at ver,8/5/2001,-37.831799,140.77919,1
09/14/1996 23:30:00,1996-09-14,1996,Sep,14,Saturday,23:30:00,port adelaide (south australia),land,sa,au,Australia,light,5,5 sec,I was driving down the street&#44 a main road&#44 and looked up and saw a green light flash over my head and qwondered what the hell was that,12/16/1999,-34.85,138.466667,1
10/10/1996 20:00:00,1996-10-10,1996,Oct,10,Thursday,20:00:00,lake macquarie (nsw&#44 australia),land,nsw,au,Australia,light,300,5 min,RED LIGHT WITH OTHER RED FLASHING LIGHT&#44 ONE OBJECT,5/24/1999,-33.093373,151.588982,1
07/23/2001 18:30:00,2001-07-23,2001,Jul,23,Monday,18:30:00,kilsyth (australia),land,vic,au,Australia,light,60,1min,Light seen over kilsth area on monday evening,8/5/2001,-37.8,145.316667,1
01/01/1997 01:30:00,1997-01-01,1997,Jan,01,Wednesday,1:30:00,perth (western australia),land,wa,au,Australia,triangle,3600,1hr,u.f.o. over suberbia,12/23/2002,-31.95224,115.861397,1
01/11/1997 23:30:00,1997-01-11,1997,Jan,11,Saturday,23:30:00,brisbane (qld&#44 australia),land,qld,au,Australia,circle,3600,1 hour,Strange lights over Brisbane,8/5/2001,-27.47101,153.024292,1
01/17/1997 02:00:00,1997-01-17,1997,Jan,17,Friday,2:00:00,sydney (nsw&#44 australia),land,nsw,au,Australia,cylinder,600,10 minutes,A long&#44 rotating tube like object&#44 covered with small windows. Perhaps 50m long. With two antennae like objects protruding from the fro,3/7/1998,-33.861481,151.205475,1
02/18/1997 00:50:00,1997-02-18,1997,Feb,18,Tuesday,0:50:00,melbourne (vic&#44 australia),land,vic,au,Australia,other,0.5,1/2 sec,BRIGHT FLASH IN NORTHERN SKY FOLLOWED BY DISTANT THUD MELBOURNE AUSTRALIA 18 Feb 1997  12:50am Eastern Std TimePossible UFO crash ?,3/7/1998,-37.813938,144.963425,1
04/03/1997 20:45:00,1997-04-03,1997,Apr,03,Thursday,20:45:00,melbourne (vic&#44 australia),land,vic,au,Australia,egg,10,10 seconds ?,At aprox. 20.45 I noticed 2 light emitting pinkish egg shaped objects n/w of my position. They were aprox 50 miles away travelling extr,3/7/1998,-37.813938,144.963425,1
05/07/1997 19:30:00,1997-05-07,1997,May,07,Wednesday,19:30:00,adelaide (south australia),land,sa,au,Australia,triangle,5,5 seconds,first a dimond shape full of lights then travel right a v type object,4/2/1999,-34.928661,138.598633,1
11/02/1997 22:20:00,1997-11-02,1997,Nov,02,Sunday,22:20:00,broken hill (australia),land,nsw,au,Australia,light,1200,20 minutes,Observed pulsating set of 4 rectangular lights of white and red&#44 50 feet from the ground never moving.,12/23/2002,-31.961729,141.459976,1
11/20/1997 19:00:00,1997-11-20,1997,Nov,20,Thursday,19:00:00,melbourne (vic&#44 australia),land,vic,au,Australia,cone,600,10 mins,Driving home with freinds&#44 saw unusual craft (real obvious UFO) hovering in a field&#44 stopped to look at/verify what it might be...,8/28/2002,-37.813938,144.963425,1
06/29/2013 19:00:00,2013-06-29,2013,Jun,29,Saturday,19:00:00,darley (australi),land,vic,au,Australia,circle,360,6 minutes,Strange unidentified light in the sky.,7/3/2013,-37.658455,144.443507,1
01/22/2004 01:45:00,2004-01-22,2004,Jan,22,Thursday,1:45:00,dunkeld (australia),land,vic,au,Australia,triangle,600,5-10 mins,I was star gazing and after seeing a shooting star&#44 I turned and saw something high in the atmosphere.,4/9/2004,-37.649872,142.343933,1
01/03/1998 23:30:00,1998-01-03,1998,Jan,03,Saturday,23:30:00,keysborough (vic&#44 australia),land,vic,au,Australia,light,60,1 minute,red lights bigger than a plane irregular flight patterns travelling sw to ne flying low but not lower enough to get a good description,3/7/1998,-38.016667,145.166667,1
02/15/1998 20:00:00,1998-02-15,1998,Feb,15,Sunday,20:00:00,newborough (vic&#44 australia),land,vic,au,Australia,triangle,60,half an hour,a large triangle with orange lights on each of the three corners,1/28/1999,53.164868,-4.359065,1
11/26/1997 22:30:00,1997-11-26,1997,Nov,26,Wednesday,22:30:00,campbelltown (australia),land,vic,au,Australia,other,3600,1 hour,UFO flew over neighbours house with object flying inside craft. Ufo&#39s play tag with each other.,4/28/2001,-37.2,143.95,1
03/24/2003 21:00:00,2003-03-24,2003,Mar,24,Monday,21:00:00,tathra (australia),land,nsw,au,Australia,triangle,5,5 seconds,kinda confused&#44 not sure what this was,5/13/2003,-36.731258,149.983276,1
05/22/1998 21:30:00,1998-05-22,1998,May,22,Friday,21:30:00,lansvale (sydney) (nsw&#44 australia),land,nsw,au,Australia,other,3600,1 hour,As we watched the craft proceeded to play as a child playing hide and seek.It almost seemed to be trying to work out who we were.we wer,11/21/1998,-33.897564,150.953237,1
06/01/1998 19:00:00,1998-06-01,1998,Jun,01,Monday,19:00:00,bundaverg (australia),land,qld,au,Australia,circle,5,5 secs,i just went outside before i went 2 bed and saw it mooving around high above in the air,1/3/2001,-24.864963,152.348653,1
07/01/1998 17:40:00,1998-07-01,1998,Jul,01,Wednesday,17:40:00,lithgow (nsw&#44 australia),land,nsw,au,Australia,light,15,15sec,star light appeared travelled a short distance then faided away,11/21/1998,-33.482471,150.136307,1
07/24/1998 01:30:00,1998-07-24,1998,Jul,24,Friday,1:30:00,townsville (qld&#44 australia),land,qld,au,Australia,circle,300,5 minutes,I was watching television at 01:30 when I heard a loud boom sound.The power then blacked out.I thought that the cut off switch had went,11/21/1998,-19.26639,146.805695,1
08/02/1998 20:45:00,1998-08-02,1998,Aug,02,Sunday,20:45:00,perth (western australia),land,wa,au,Australia,light,60,1min,blue light from se  to nw at high speed,11/21/1998,-31.95224,115.861397,1
08/05/1998 09:00:00,1998-08-05,1998,Aug,05,Wednesday,9:00:00,ballina (australia),land,nsw,au,Australia,other,120,2 minutes,A floating clear glass bubble with a man sitting inside it.,4/18/2012,-28.86414,153.565414,1
08/20/1998 02:30:00,1998-08-20,1998,Aug,20,Thursday,2:30:00,penola (near&#44 rural) (south australia ),land,sa,au,Australia,triangle,600,10 minutes,large black triangle with lights on each corner paced my vehicle for about ten minutes,3/21/2003,-37.375198,140.836777,1
09/15/1998 16:45:00,1998-09-15,1998,Sep,15,Tuesday,16:45:00,brisbane (qld&#44 australia),land,qld,au,Australia,circle,45,45 sec.,Circular beams of light decended through the cloud&#44 rotating&#44 then did a pitch and yaw manouver before ascending again,5/24/2005,-27.47101,153.024292,1
09/15/1998 20:30:00,1998-09-15,1998,Sep,15,Tuesday,20:30:00,melbourne (australia),land,vic,au,Australia,cigar,5,5 seconds,((HOAX??)) Green light &quot;calls&quot;  witness in melbourne Australia 1999.,2/1/2007,-37.813938,144.963425,1
11/02/1998 19:00:00,1998-11-02,1998,Nov,02,Monday,19:00:00,adelaide (south australia),land,sa,au,Australia,circle,60,1min,Not your typical sighting&#44 a black stealth machine gliding past&#44 giving me a view of what I knew existed. Wow.,2/22/2002,-34.928661,138.598633,1
11/10/1998 00:30:00,1998-11-10,1998,Nov,10,Tuesday,0:30:00,belair  (south australia),land,sa,au,Australia,disk,360,6min,The disc was acompanyed by two other craft before it flew off at high speed and it was a reflective silver with lights around the rim,11/20/2001,-35,138.633333,1
11/15/1998 19:50:00,1998-11-15,1998,Nov,15,Sunday,19:50:00,newborough (vic&#44 australia),land,vic,au,Australia,oval,60,half and hour,Hovering over mountain about 10kms away from our house. Started as 2 Big glowing balls of Red the changed to 5 little red glowing balls,8/10/1999,53.164868,-4.359065,1
12/14/1998 19:30:00,1998-12-14,1998,Dec,14,Monday,19:30:00,albany (western australia),land,wa,au,Australia,flash,600,10 minutes,Looking up at the sky for Meteors and Come across a real Bright Star but was moving and had red flashing light on it then disserperd to,1/28/1999,-35.003101,117.865952,1
12/04/2005 01:30:00,2005-12-04,2005,Dec,04,Sunday,1:30:00,murtoa (australia),land,vic,au,Australia,light,1,about 1 second,Firework like light with no sound.,12/16/2005,-36.62009,142.466766,1
01/02/1999 22:00:00,1999-01-02,1999,Jan,02,Saturday,22:00:00,sydney (nsw&#44 australia),land,nsw,au,Australia,light,540,9 minutes,Two lights in the sky interacting with each other in the most astounding way,10/12/2001,-33.861481,151.205475,1
01/09/1999 21:20:00,1999-01-09,1999,Jan,09,Saturday,21:20:00,melbourne (vic&#44 australia),land,vic,au,Australia,triangle,5,5 seconds,UFO type object sighting report - Approx 1 Sep 1999 Like a huge metor type object firey blue/white/yellow with yellow/white tail,9/12/1999,-37.813938,144.963425,1
01/15/1999 03:30:00,1999-01-15,1999,Jan,15,Friday,3:30:00,melbourne (tullarmarine) (vic&#44 australia),land,vic,au,Australia,light,15,15 seconds,light source flying very fast with no sound to be heard,12/2/2000,-37.813938,144.963425,1
04/04/1999 19:15:00,1999-04-04,1999,Apr,04,Sunday,19:15:00,aandurah (western australia),land,wa,au,Australia,circle,600,10:00 mins,while driving to work i saw a bright orange object&#44perfectly round and giving off a strong orange glow.,4/26/1999,-32.536809,115.742746,1
04/09/2013 16:14:00,2013-04-09,2013,Apr,09,Tuesday,16:14:00,logan (australia),land,vic,au,Australia,other,20,20 seconds,Black object near a flock of birds&#44 looked like floating paper but was too big and then proceeded to move straighter and faster. Oval.,4/12/2013,-36.616667,143.466667,1
04/21/1999 21:45:00,1999-04-21,1999,Apr,21,Wednesday,21:45:00,margaret river (western australia),land,wa,au,Australia,fireball,240,3-4 min,Saw a fireball in distance&#44 it approached slowly at about 200m above our house. It then passed directly overhead and dissappeared in th,5/24/1999,-33.953602,115.073914,1
04/28/1999 18:10:00,1999-04-28,1999,Apr,28,Wednesday,18:10:00,melbourne (vic&#44 australia),land,vic,au,Australia,circle,60,1 min,Walking in the paddocks near the radio towers at night when in the distance above the mountain range I saw a large&#44 very bright&#44 white,5/24/1999,-37.813938,144.963425,1
05/20/1999 00:00:00,1999-05-20,1999,May,20,Thursday,0:00:00,hartley valley (blue mountains) (nsw&#44 australia),land,nsw,au,Australia,other,10,about 10sec,we both saw a light moving up and down in an irregular pattern.,12/16/1999,32.579591,-83.914631,1
05/24/1999 19:30:00,1999-05-24,1999,May,24,Monday,19:30:00,altona meadows (australia),land,vic,au,Australia,light,60,60sec,direction from east to west moving fast from east horizon to 140 deegres on the sky visible&#44 untill dissaped above city of Melbourne. r,8/5/2001,-37.882892,144.785011,1
06/01/1999 02:00:00,1999-06-01,1999,Jun,01,Tuesday,2:00:00,sydney (australia),land,nsw,au,Australia,circle,60,1 minute,orb in back garden took off extended into a tail of light then vanished,6/12/2007,-33.861481,151.205475,1
06/12/1999 12:00:00,1999-06-12,1999,Jun,12,Saturday,12:00:00,melbourne (vic&#44 australia),land,vic,au,Australia,disk,600,10 min.,a disk shaped ship with a black dot in the centre.the craft was gray &amp; moved rather slowly across the sky.,10/2/1999,-37.813938,144.963425,1
06/14/1999 03:00:00,1999-06-14,1999,Jun,14,Monday,3:00:00,sydney (australia),land,nsw,au,Australia,other,900,15 minutes,Possible humanoid being sighting / abduction attempt??  ((NUFORC Note:  Possibly not a serious report??  PD)),1/10/2009,-33.861481,151.205475,1
04/07/2004 23:13:00,2004-04-07,2004,Apr,07,Wednesday,23:13:00,cooma (australia),land,vic,au,Australia,oval,180,3 min,Oval UFO&#39s Down Under,4/9/2004,-36.416667,145.066667,1
07/17/1999 23:20:00,1999-07-17,1999,Jul,17,Saturday,23:20:00,maitland (nsw&#44 australia),land,nsw,au,Australia,light,90,1.5 mins,Moving lhazy bright light&#44 sped up&#44 split into 2 then both vanished.,7/26/2002,-34.373859,137.673325,1
08/20/1999 20:00:00,1999-08-20,1999,Aug,20,Friday,20:00:00,adelaide (south australia),land,sa,au,Australia,formation,10,10secs,20;00 hrs 25 degrees above horizon to the NE two objects a few degrees apart looked like stars&#44 then suddenly began to move North and d,10/2/1999,-34.928661,138.598633,1
09/01/1999 22:30:00,1999-09-01,1999,Sep,01,Wednesday,22:30:00,adelaide (south australia),land,sa,au,Australia,light,2700,20-45 mins,the 2 lights moved around quite fast zig-zaging and going around in circles behind the cloud........,3/21/2003,-34.928661,138.598633,1
09/29/1999 14:30:00,1999-09-29,1999,Sep,29,Wednesday,14:30:00,warnambool&#44 vic (australia),land,vic,au,Australia,unknown,0.05,0.05 seconds,It was very quick. We have a picture of it.,11/2/1999,-38.382766,142.484499,1
10/17/1999 20:25:00,1999-10-17,1999,Oct,17,Sunday,20:25:00,melbourne (vic&#44 australia),land,vic,au,Australia,cylinder,1500,25 min,The Craft zipped passed&#44 zipped back&#44 stopped&#44and just stood there for about twenty mins. The wittnesses said they had an eerie feeling,4/15/2000,-37.813938,144.963425,1
11/12/1999 23:30:00,1999-11-12,1999,Nov,12,Friday,23:30:00,magnetic island (qld&#44 australia),land,qld,au,Australia,light,600,10 mins,watching storm&#44thought a boat let out a flare&#44a red hovering light but the flare zig zagged then flew on angle&#44 then flew straight behi,4/15/2000,-19.135865,146.842356,1
12/25/2007 00:00:00,2007-12-25,2007,Dec,25,Tuesday,0:00:00,wangaratta (australia),land,vic,au,Australia,light,60,1 minute,Three in formation,3/4/2008,-36.358459,146.320557,1
10/19/2000 21:30:00,2000-10-19,2000,Oct,19,Thursday,21:30:00,baranduda (australia),land,vic,au,Australia,sphere,120,2 minutes,UFO craft spotted in Southern Australia,12/2/2000,-36.2,146.966667,1
12/31/1999 23:50:00,1999-12-31,1999,Dec,31,Friday,23:50:00,gold coast (qld&#44 australia),land,qld,au,Australia,light,60,1min,australia newyears eve &#44  three brights stars spinning in the night sky above the goldcoast &#44 ufos wanted join the celebration,7/11/2000,-28.00029,153.430878,1
12/31/1999 23:59:00,1999-12-31,1999,Dec,31,Friday,23:59:00,sydney (nsw&#44 australia),land,nsw,au,Australia,light,180,3 mins,there were 3 of them &#44 maybe more but they were there and observing EVERYTHING.,3/16/2001,-33.861481,151.205475,1
01/01/2000 01:00:00,2000-01-01,2000,Jan,01,Saturday,1:00:00,healesville&#44 melbourne (australia),land,vic,au,Australia,unknown,1200,20 minutes,Light darting around over resevoir,8/28/2003,-37.653829,145.517006,1
01/13/2000 23:30:00,2000-01-13,2000,Jan,13,Thursday,23:30:00,brisbane (qld&#44 australia),land,qld,au,Australia,fireball,5,5 seconds,OK&#44 this&#44 I&#39m sure wasn&#39t a UFO - but I found a link&#44 and I thought I&#39d share it anyway... I had just got home and was locking my car d,1/11/2002,-27.47101,153.024292,1
01/15/2000 20:15:00,2000-01-15,2000,Jan,15,Saturday,20:15:00,lake macquarie (nsw&#44 australia),land,nsw,au,Australia,circle,900,15 min,At the approx time of 8.15pm a bright circular red light was spotted north east of Lake Macquarie NSW Australia.,4/1/2000,-33.093373,151.588982,1
02/07/2000 11:00:00,2000-02-07,2000,Feb,07,Monday,11:00:00,shepparton (vic&#44 australia),land,vic,au,Australia,other,10,10secs,3 box shaped object appeared for about 10 seconds and then disappeared as if they teleported,3/7/2000,-36.38047,145.398666,1
02/27/2000 20:40:00,2000-02-27,2000,Feb,27,Sunday,20:40:00,perth (western australia),land,wa,au,Australia,unknown,15,15 seconds,OK&#44 I saw a flashing at very high altitude with a faint red light moving with it.,2/27/2000,-31.95224,115.861397,1
03/06/2000 22:00:00,2000-03-06,2000,Mar,06,Monday,22:00:00,forbes (32km outside of) (nsw&#44 australia),land,nsw,au,Australia,triangle,180,3minutes,A flash of light appeared in the sky as if it had  sped from a distant place&#44 before I could get closer it had disappeared but it left,8/5/2001,-33.384361,148.007599,1
04/06/2000 21:10:00,2000-04-06,2000,Apr,06,Thursday,21:10:00,mackay (qld&#44 australia),land,qld,au,Australia,flash,1300,21:40,Sky clear with little extremly high cloud Object sighting approx 30 mins white to gold un random light flashing movement slowly to very,4/15/2000,-21.15345,149.165543,1
04/20/2000 21:00:00,2000-04-20,2000,Apr,20,Thursday,21:00:00,melbourne (vic&#44 australia),land,vic,au,Australia,light,300,5 minutes,A drifting flashing glow of orange&#44 which went from dim to bright simultaneously - floated across the sky and dissappeared,4/26/2000,-37.813938,144.963425,1
05/05/2000 23:45:00,2000-05-05,2000,May,05,Friday,23:45:00,sydney (nsw&#44 australia),land,nsw,au,Australia,egg,600,10 min,Strange circular object outside my home,12/20/2000,-33.861481,151.205475,1
06/04/2000 22:00:00,2000-06-04,2000,Jun,04,Sunday,22:00:00,sydney (nsw&#44 australia),land,nsw,au,Australia,oval,600,10 mins,silver football shaped object hovered above rooty hill seen by more than 50 people including me&#33 The Truth Is Out There&#33,6/6/2000,-33.861481,151.205475,1
06/15/2000 21:30:00,2000-06-15,2000,Jun,15,Thursday,21:30:00,darwin (nt&#44 australia),land,nt,au,Australia,other,300,5 mins,golden orbs travelling in a line.,2/18/2001,-12.45722,130.836639,1
07/10/2000 22:30:00,2000-07-10,2000,Jul,10,Monday,22:30:00,lithgow (nsw&#44 australia),land,nsw,au,Australia,cross,60,1 minute,My family&#44friends and I were camping at Newnes a camp site near Lithgow inside a National Park. We had done a Canyon that day and every,12/2/2000,-33.482471,150.136307,1
07/16/2000 22:45:00,2000-07-16,2000,Jul,16,Sunday,22:45:00,melbourne (vic&#44 australia),land,vic,au,Australia,circle,600,10min,Fire ball rised up from the ground to about 500m.Drops of molten like fire coming from it. Loud explosion&#44green flash speed off.,7/23/2000,-37.813938,144.963425,1
07/25/2000 06:33:00,2000-07-25,2000,Jul,25,Tuesday,6:33:00,geraldton (australia),land,wa,au,Australia,light,60,60 seconds+,flashing lights&#44no noise&#44moved like a bee &#44flew slowly&#44also very quickly,12/2/2000,-28.778971,114.614594,1
08/12/2000 22:00:00,2000-08-12,2000,Aug,12,Saturday,22:00:00,central coast (nsw&#44 australia),land,nsw,au,Australia,other,1800,30 mins,Spooky stuff&#33&#33&#44 the truth is no longer out there&#44 in my opinion,12/2/2000,-33.42979,151.371445,1
08/15/2000 10:30:00,2000-08-15,2000,Aug,15,Tuesday,10:30:00,sydney (nsw&#44 australia),land,nsw,au,Australia,sphere,1200,20 minutes +,Watching an unmoving dot in the sky over Sydney.,10/15/2002,-33.861481,151.205475,1
08/26/2000 12:15:00,2000-08-26,2000,Aug,26,Saturday,12:15:00,perth (western australia),land,wa,au,Australia,disk,900,15 mins,i Was walking in a field with some friends when two glowing lights appeared in the sky they were about 30 feet above us .my friend dave,9/17/2000,-31.95224,115.861397,1
11/02/2001 09:00:00,2001-11-02,2001,Nov,02,Friday,9:00:00,baranduda (australia),land,vic,au,Australia,unknown,3,3 seconds,Light Stream with Multiple objects.,8/11/2004,-36.2,146.966667,1
10/01/2000 22:00:00,2000-10-01,2000,Oct,01,Sunday,22:00:00,healesville. victoria (australia),land,vic,au,Australia,light,40,2/3 minutes,light in sky projecting &quot;beam&quot;.,8/28/2003,-37.653829,145.517006,1
04/08/2002 22:00:00,2002-04-08,2002,Apr,08,Monday,22:00:00,wodonga  (australia),land,vic,au,Australia,circle,480,8 mins,three round bright lights in formation,4/8/2002,-36.121792,146.888092,1
11/11/2000 00:00:00,2000-11-11,2000,Nov,11,Saturday,0:00:00,sydney (nsw&#44 australia),land,nsw,au,Australia,other,600,10min,i was sitting down in a meadow&#44 when i looked up and saw the stars when suddenly one of the stars i was looking at changed&#44,4/28/2001,-33.861481,151.205475,1
11/22/2000 19:50:00,2000-11-22,2000,Nov,22,Wednesday,19:50:00,wollongong (nsw&#44 australia),land,nsw,au,Australia,fireball,600,10 minutes,i saw a comet shaped fire ball in the sky moving at an extraordinary speed.,12/2/2000,-34.424,150.893448,1
11/24/2000 23:15:00,2000-11-24,2000,Nov,24,Friday,23:15:00,melbourne (oakleigh) (vic&#44 australia),land,vic,au,Australia,triangle,240,4 minutes,street lights in the area swiched off while the obect was over head&#44they came back on as soon as the object departed.,12/2/2000,-37.813938,144.963425,1
12/07/2000 12:45:00,2000-12-07,2000,Dec,07,Thursday,12:45:00,sydney (nsw&#44 australia),land,nsw,au,Australia,changing,20,20 seconds,it was very big.  the craft flew across the sky very quickly.  it changed shapes a few times.  it was red and then green.,2/24/2001,-33.861481,151.205475,1
12/07/2000 22:30:00,2000-12-07,2000,Dec,07,Thursday,22:30:00,perth (western australia),land,wa,au,Australia,rectangle,600,10 mins,craft sucks water out of pool in australia,12/9/2000,-31.95224,115.861397,1
12/23/2000 20:15:00,2000-12-23,2000,Dec,23,Saturday,20:15:00,sydney (nsw&#44 australia),land,nsw,au,Australia,disk,600,5-10 min,Photo taken showing bright orange lights 6 in total  one moved back and forth rapidly,1/3/2001,-33.861481,151.205475,1
06/30/2001 20:30:00,2001-06-30,2001,Jun,30,Saturday,20:30:00,wodonga (australia),land,vic,au,Australia,circle,180,3 mins,UFO ufo above wodonga rsl Australia,10/8/2007,-36.121792,146.888092,1
12/31/2000 01:05:00,2000-12-31,2000,Dec,31,Sunday,1:05:00,lake macquarie (nsw&#44 australia),land,nsw,au,Australia,flash,240,4 minutes,bright red glow&#44 that appeared outside window&#44 on the horizon.  The light then intensified&#44 then disappeared.,1/3/2001,-33.093373,151.588982,1
01/01/2001 00:15:00,2001-01-01,2001,Jan,01,Monday,0:15:00,brisbane (qld&#44 australia),land,qld,au,Australia,,45,3/4minutes,u.f.o. seen at 0015hours e.s.t brisbane australia.craft definately NOT conventional plane/balloon/satellite or a joke.,4/1/2001,-27.47101,153.024292,1
01/01/2001 00:25:00,2001-01-01,2001,Jan,01,Monday,0:25:00,brisbane (qld&#44 australia),land,qld,au,Australia,disk,120,2mins,single object made up of two clusters of lights&#44visible only on video&#44no sound&#44at 3000/5000 feet travelling very fast,2/18/2001,-27.47101,153.024292,1
01/02/2001 21:20:00,2001-01-02,2001,Jan,02,Tuesday,21:20:00,sydney (50 miles north of)  (nsw&#44 australia),land,nsw,au,Australia,light,180,1-3 minutes,truly bizarre &quot;anomolous satellite-like&quot; observation,2/18/2001,-33.861481,151.205475,1
07/13/2003 23:10:00,2003-07-13,2003,Jul,13,Sunday,23:10:00,deniliquin (australia),land,nsw,au,Australia,unknown,1800,20-30mins,bright orange circle moved acros the sky and back.,7/16/2003,-35.527409,144.959579,1
03/15/2001 08:10:00,2001-03-15,2001,Mar,15,Thursday,8:10:00,penrith  (australia),land,nsw,au,Australia,other,300,5 mins,An objected flew up fast&#44 darted from place to place(whith no lights on) then turned on a orange and blue light&#44 flew over me &#44no sound,4/28/2001,-33.75,150.7,1
03/15/2001 20:00:00,2001-03-15,2001,Mar,15,Thursday,20:00:00,melton  (australia),land,vic,au,Australia,oval,420,7min,I saw something that i know cound not be man built and not possible to do what it did,8/5/2001,-37.683392,144.585434,1
03/20/2001 08:16:00,2001-03-20,2001,Mar,20,Tuesday,8:16:00,adelaide,land,sa,au,Australia,rectangle,120,2 minutes,Chrome Rectangle Box UFO floating in sky.,1/12/2012,-34.928621,138.599959,1
04/15/2001 19:45:00,2001-04-15,2001,Apr,15,Sunday,19:45:00,melbourne (vic&#44 australia),land,vic,au,Australia,fireball,240,3-4 mins,fast moving orange luminus balls of light,4/28/2001,-37.813938,144.963425,1
05/01/2001 14:00:00,2001-05-01,2001,May,01,Tuesday,14:00:00,meekatharra (western australia),land,wa,au,Australia,cone,600,10 minutes,Strange object spotted over regional Western Australia - May 2001,5/13/2003,-26.59524,118.493927,1
05/03/2001 10:51:00,2001-05-03,2001,May,03,Thursday,10:51:00,brisbane (qld&#44 australia),land,qld,au,Australia,other,10,approx 10secs,Bright flash&#44 but not a blinding flash&#44 then it took off&#44 and that was it.  Real wierd.  No sound.,8/5/2001,-27.47101,153.024292,1
05/08/2001 20:30:00,2001-05-08,2001,May,08,Tuesday,20:30:00,brisbane (qld&#44 australia),land,qld,au,Australia,fireball,180,3 minutes,i saw 3 fiery balls dart around the sky,8/5/2001,-27.47101,153.024292,1
07/02/2005 00:00:00,2005-07-02,2005,Jul,02,Saturday,0:00:00,middleton/golwa (australia),land,sa,au,Australia,circle,5,5 seconds,I was travelling from back from Adelaide on the Middleton to Goolwa main Country road&#44 I noticed this ball of mercury liquid light go a,7/13/2005,-35.475909,138.745308,1
09/20/2005 03:00:00,2005-09-20,2005,Sep,20,Tuesday,3:00:00,ulladulla (australia),land,nsw,au,Australia,fireball,600,10 minutes,((NUFORC Note:  Hoax.  Note date indicated by source.  PD))  Theres alien&#39s in the woods near my house.,10/11/2005,-35.359058,150.472473,1
05/14/2001 05:30:00,2001-05-14,2001,May,14,Monday,5:30:00,wollongong (nsw&#44 australia),land,nsw,au,Australia,cigar,900,15 min.,Bright Cigar object. Very high altitute on east.Traveling from north to south. Strong light was flashing from time to time. Time betwee,8/5/2001,-34.424,150.893448,1
05/14/2001 14:00:00,2001-05-14,2001,May,14,Monday,14:00:00,hobart (tasmania&#44 australia),land,tas,au,Australia,other,30,30 seconds,Plane without engine pods or sound flys overhead,8/5/2001,-42.883209,147.331665,1
05/15/2001 19:00:00,2001-05-15,2001,May,15,Tuesday,19:00:00,brisbane (qld&#44 australia),land,qld,au,Australia,changing,3600,1hr,blinding lights very fast and changed shape,8/5/2001,-27.47101,153.024292,1
06/15/1976 18:30:00,1976-06-15,1976,Jun,15,Tuesday,18:30:00,port noarlunga (australia),land,sa,au,Australia,circle,120,2minutes,the lights had a rotational sequence on the bottom,8/28/2002,-35.15,138.466667,1
06/29/2004 17:30:00,2004-06-29,2004,Jun,29,Tuesday,17:30:00,walpole (australia),land,wa,au,Australia,fireball,15,15sec,zig zagging meteorite,7/8/2004,-34.976231,116.731331,1
06/01/2001 20:00:00,2001-06-01,2001,Jun,01,Friday,20:00:00,sydney (nsw&#44 australia),land,nsw,au,Australia,diamond,900,15min,4 objects in a straight line with an orange glow,8/5/2001,-33.861481,151.205475,1
06/03/2001 20:00:00,2001-06-03,2001,Jun,03,Sunday,20:00:00,melbourne (vic&#44 australia),land,vic,au,Australia,cone,60,1minute,3 Reports UFO sightings including news 7 newsreport video http://www.starcomone.com/aliens/ for video and info,8/16/2002,-37.813938,144.963425,1
06/08/2001 21:30:00,2001-06-08,2001,Jun,08,Friday,21:30:00,adelaide (south australia),land,sa,au,Australia,light,120,2 mins,A small bright star.,8/5/2001,-34.928661,138.598633,1
06/15/2001 06:10:00,2001-06-15,2001,Jun,15,Friday,6:10:00,perth (western australia),land,wa,au,Australia,unknown,300,5 minutes,I saw three bright objects travelling together&#44 they were far away&#44 their velocity changed and one stoped it&#39s motion.,12/5/2001,-31.95224,115.861397,1
06/20/2001 01:30:00,2001-06-20,2001,Jun,20,Wednesday,1:30:00,canberra (australia),land,act,au,Australia,teardrop,10800,3 hrs,8 tear drop shaped ships flew over bungendore at aproximatly 1:30am eastern stanerd time,8/5/2001,-35.27603,149.13435,1
12/25/2003 23:00:00,2003-12-25,2003,Dec,25,Thursday,23:00:00,hardwrickbay (australia),land,sa,au,Australia,sphere,60,23:00-23:01,white/blue sphere hovers above boat while fishing for sharks at Hardwrick Bay&#44 Yourk Peninsula&#44 Australia,1/17/2004,-34.891281,137.459394,1
06/29/2001 02:00:00,2001-06-29,2001,Jun,29,Friday,2:00:00,phillip island (australia),land,vic,au,Australia,light,2400,40mins,red lights seen over southern victoria,8/5/2001,-38.48987,145.203828,1
06/11/1992 16:26:00,1992-06-11,1992,Jun,11,Thursday,16:26:00,nowra (australia),land,nsw,au,Australia,disk,989,16:29,On one sunday afternoon an object was seen 2-3km away in the east and without doubt it was a fling saucer.,2/18/2001,-34.88422,150.600357,1
01/31/2014 22:00:00,2014-01-31,2014,Jan,31,Friday,22:00:00,semaphore (australia),land,sa,au,Australia,formation,3600,1 hour,my self and my family were at the beach as the night was getting more along i started to do as i have done for yrs star gaze after an h,2/7/2014,-34.833333,138.483333,1
07/04/2001 17:00:00,2001-07-04,2001,Jul,04,Wednesday,17:00:00,brisbane (qld&#44 australia),land,qld,au,Australia,oval,7200,approx 2 hours,flashing light&#39s dissapearing on and off and ship reappearing every night so far.,8/5/2001,-27.47101,153.024292,1
11/13/2004 01:00:00,2004-11-13,2004,Nov,13,Saturday,1:00:00,mindarie (australia),land,sa,au,Australia,oval,10,half an hour,We saw the 2 objects and they were shining an oval then they shot across the sky very fast.,12/3/2004,-34.816667,140.216667,1
07/20/2001 08:30:00,2001-07-20,2001,Jul,20,Friday,8:30:00,cairns (qld&#44 australia),land,qld,au,Australia,cylinder,480,8 mins,Shape looked like crushed tin foil.,8/11/2004,-16.92304,145.766251,1
12/31/2005 22:20:00,2005-12-31,2005,Dec,31,Saturday,22:20:00,salisbury east (australia),land,sa,au,Australia,sphere,300,4-5 mins,4 orange object&#39s seen over Adelaide&#44 South Australia,10/30/2006,-34.787691,138.65493,1
03/07/2005 19:30:00,2005-03-07,2005,Mar,07,Monday,19:30:00,goulburn (australia),land,nsw,au,Australia,oval,600,10 minutes,Vertical oval-shaped object seen in skies over Goulburn&#44 Australia&#44 disappeared in orange sparks&#44 before becoming a star.,5/11/2005,-34.751549,149.720856,1
07/28/2001 01:48:00,2001-07-28,2001,Jul,28,Saturday,1:48:00,bendigo (australia),land,vic,au,Australia,unknown,8,5-8 seconds,Orange arrow shape that made an impossible manoeuvre over Bendigo&#44 Australia.,8/12/2001,-36.758179,144.280243,1
04/23/2014 23:00:00,2014-04-23,2014,Apr,23,Wednesday,23:00:00,forster (australia),land,sa,au,Australia,circle,7200,2 hours,Several orange lights stationary when illuminated but silently and continuously changing position we were positioned on a rocky headlan,4/24/2014,-34.75,139.55,1
09/30/2001 23:35:00,2001-09-30,2001,Sep,30,Sunday,23:35:00,wollongong (nsw&#44 australia),land,nsw,au,Australia,fireball,1200,20 mins,Fireball object flying silently.,10/12/2001,-34.424,150.893448,1
10/10/2001 04:33:00,2001-10-10,2001,Oct,10,Wednesday,4:33:00,sydney (nsw&#44 australia),land,nsw,au,Australia,formation,180,3 minutes,formation and impact,11/20/2001,-33.861481,151.205475,1
11/02/2001 08:35:00,2001-11-02,2001,Nov,02,Friday,8:35:00,sydney (righton&#44 botany bay) (nsw&#44 australia),land,nsw,au,Australia,disk,120,2mins,Near collison with vehicle disc bright white lifted car whislt waiting traffic lights Sydney Australia,4/16/2005,-33.861481,151.205475,1
01/01/1999 20:00:00,1999-01-01,1999,Jan,01,Friday,20:00:00,leeton (australia),land,nsw,au,Australia,circle,30,<30 seconds,Nothing man made could of flewn through the sky like this object.,1/24/2014,-34.551048,146.404831,1
11/12/2001 07:00:00,2001-11-12,2001,Nov,12,Monday,7:00:00,sydney (nsw&#44 australia),land,nsw,au,Australia,disk,23,23sec,It was a grey saucery shaped object hurdling to Earht however i only saw a glimpse of it.,12/5/2001,-33.861481,151.205475,1
11/23/2001 21:30:00,2001-11-23,2001,Nov,23,Friday,21:30:00,melbourne (vic&#44 australia),land,vic,au,Australia,light,1800,30 mins,Four lights were circling around in sky&#44 proved fact that lights were not beams from ground&#44 as clouds blocked the lights. UFO.,12/5/2001,-37.813938,144.963425,1
12/25/2001 20:00:00,2001-12-25,2001,Dec,25,Tuesday,20:00:00,adelaide (south australia),land,sa,au,Australia,light,180,3 min,3 orange dots in triangle formation &#44followed by another three 30 seconds later .seen by seven adults,5/14/2002,-34.928661,138.598633,1
01/09/2002 00:30:00,2002-01-09,2002,Jan,09,Wednesday,0:30:00,melbourne (vic&#44 australia),land,vic,au,Australia,disk,60,1 minute,A classic UFO seen in central Melbourne&#44 hovering at biulding level the windows and other features were visable.,3/19/2002,-37.813938,144.963425,1
01/23/2002 21:50:00,2002-01-23,2002,Jan,23,Wednesday,21:50:00,melbourne (vic&#44 australia),land,vic,au,Australia,light,2700,45 minutes,WHILE STANDING IN MY BACK YARD THIS EVENING&#44 I OBSERVED WHAT APPEARED TO BE A PRETTY STANDARD LOOKING SATELLITE&#44 WHICH ARE OFTEN SEEN H,1/29/2002,-37.813938,144.963425,1
01/26/2002 14:00:00,2002-01-26,2002,Jan,26,Saturday,14:00:00,sydney (nsw&#44 australia),land,nsw,au,Australia,oval,300,3-5mins,2 silvery metallic objects seen over sydney australia,6/23/2004,-33.861481,151.205475,1
02/08/2002 21:30:00,2002-02-08,2002,Feb,08,Friday,21:30:00,mulwala&#44 nsw (australia),land,nsw,au,Australia,fireball,2400,40mns,lights in the sky....no explanation,8/16/2002,-35.987951,146.006691,1
03/06/2002 02:40:00,2002-03-06,2002,Mar,06,Wednesday,2:40:00,sydney (nsw&#44 australia),land,nsw,au,Australia,light,300,5minutes,blue lights making sounds like beez,5/24/2005,-33.861481,151.205475,1
03/15/2002 13:00:00,2002-03-15,2002,Mar,15,Friday,13:00:00,melbourne (vic&#44 australia),land,vic,au,Australia,teardrop,900,15mins,Tear drop shiny object over Melbourne,3/17/2004,-37.813938,144.963425,1
05/14/2008 18:20:00,2008-05-14,2008,May,14,Wednesday,18:20:00,barossa valley (australia),land,sa,au,Australia,light,60,1 minute ish,we were sitting outside. it had just gotten dark. i saw a light that looked like a sattelight moving across the sky&#44 only it was much b,6/12/2008,-34.533333,138.95,1
04/08/2002 03:30:00,2002-04-08,2002,Apr,08,Monday,3:30:00,adelaide (south australia),land,sa,au,Australia,light,240,3-4 minutes,Yellow ball of light,10/15/2002,-34.928661,138.598633,1
04/08/2002 20:30:00,2002-04-08,2002,Apr,08,Monday,20:30:00,adelaide (south australia),land,sa,au,Australia,light,600,5-10 minutes,6 Bright orange lights in pyramid formation heading NW to SE moving as fast as comets&#44 but as far away as stars,4/25/2002,-34.928661,138.598633,1
10/06/1978 21:45:00,1978-10-06,1978,Oct,06,Friday,21:45:00,nuriootpa (australia),land,sa,au,Australia,fireball,45,45 seconds,Fireball inclour size  approximately 500 yards across&#44 landed and vertically lifted out of sight,8/16/2002,-34.46825,138.997665,1
04/14/2002 20:40:00,2002-04-14,2002,Apr,14,Sunday,20:40:00,tweed heads (australia),land,nsw,au,Australia,other,300,5 min,squar ufo  very brite head light  no noise,5/27/2003,-28.17561,153.542007,1
05/02/2002 23:00:00,2002-05-02,2002,May,02,Thursday,23:00:00,melbourne (vic&#44 australia),land,vic,au,Australia,sphere,300,5 minutes,Three orange spheres in trangular formation came and went.,5/14/2002,-37.813938,144.963425,1
05/04/2002 18:00:00,2002-05-04,2002,May,04,Saturday,18:00:00,albury (nsw&#44 australia),land,nsw,au,Australia,light,300,5mins max,Large Orange Mars-like ball and small star-like object descend from sky in Albury&#44 NSW Australia.,5/14/2002,-36.07494,146.923935,1
06/04/2002 16:30:00,2002-06-04,2002,Jun,04,Tuesday,16:30:00,sydney (nsw&#44 australia),land,nsw,au,Australia,cigar,180,2-3 mins,At the time this event occured&#44 I was waiting for a bus in a residential area. The street goes east-westwardly. I was standing facing t,6/12/2002,-33.861481,151.205475,1
06/08/2002 05:00:00,2002-06-08,2002,Jun,08,Saturday,5:00:00,melbourne (australia),land,vic,au,Australia,circle,180,2 - 3 minutes,Extremely Large Circular Object Glowing In Sky Above Clouds.,3/11/2006,-37.813938,144.963425,1
06/08/2002 23:00:00,2002-06-08,2002,Jun,08,Saturday,23:00:00,adelaide (south australia),land,sa,au,Australia,formation,120,1-2 minutes,SIX  U.F.O&#39S SEEN OVER AUSTRALIAN CITY BY THREE WITNESSES,3/2/2004,-34.928661,138.598633,1
01/09/2003 02:34:00,2003-01-09,2003,Jan,09,Thursday,2:34:00,mittagong (australia),land,nsw,au,Australia,triangle,25,25 secconds,appeared frist as constellation&#44 then moved quickly accross the sky.,6/3/2003,-34.45002,150.445724,1
06/10/2002 00:00:00,2002-06-10,2002,Jun,10,Monday,0:00:00,sydney (nsw&#44 australia),land,nsw,au,Australia,light,600,10 minutes,6 OR 7 BRIGHT ORANGE LIGHTS - LARGER THAN STARS - IN THE SOUTHERN CROSS FORMATION.  sTAYED STATIONARY FOR 5 MINUTES AND THEN DISPERSED.,10/15/2002,-33.861481,151.205475,1
06/12/2002 02:30:00,2002-06-12,2002,Jun,12,Wednesday,2:30:00,sydney (chatswood) (nsw&#44 australia),land,nsw,au,Australia,circle,5,5 seconds,2 Lights zooming across the sky,7/1/2002,-33.861481,151.205475,1
07/02/1994 19:45:00,1994-07-02,1994,Jul,02,Saturday,19:45:00,wollongong (australia),land,nsw,au,Australia,oval,900,10-15 minutes,Glowing ball of light travelling slowly east.,2/1/2007,-34.424,150.893448,1
06/17/2002 20:30:00,2002-06-17,2002,Jun,17,Monday,20:30:00,adelaide (south australia),land,sa,au,Australia,cylinder,600,10mins,I live appproximately 400 metres away from the Ocean&#44 this is not the first time I have seen usual craft.A good friend and I were lesur,7/1/2002,-34.928661,138.598633,1
06/29/2002 21:00:00,2002-06-29,2002,Jun,29,Saturday,21:00:00,nsw  (australia),land,nsw,au,Australia,changing,20,20secs,It flashed different colours and flew extemely fast.,7/1/2002,-31.253218,146.921099,1
07/08/2002 18:00:00,2002-07-08,2002,Jul,08,Monday,18:00:00,sydney (nsw&#44 australia),land,nsw,au,Australia,disk,1200,20 minutes,a disc shaped object was seen hovering in the Australian night sky,4/27/2004,-33.861481,151.205475,1
07/18/2002 21:00:00,2002-07-18,2002,Jul,18,Thursday,21:00:00,sydney (nsw&#44 australia),land,nsw,au,Australia,light,2,2 seconds,Distant white light moving at high speed,7/30/2002,-33.861481,151.205475,1
05/09/2012 22:00:00,2012-05-09,2012,May,09,Wednesday,22:00:00,wollongong (australia),land,nsw,au,Australia,light,180,3 minutes,Sighting of two unidentified flying objects in one night.,5/13/2012,-34.424,150.893448,1
08/02/2002 12:55:00,2002-08-02,2002,Aug,02,Friday,12:55:00,melbourne (vic&#44 australia),land,vic,au,Australia,other,240,4 mins,i started to throw up after and i felt a pain in my right arm.,8/16/2002,-37.813938,144.963425,1
08/05/2002 23:10:00,2002-08-05,2002,Aug,05,Monday,23:10:00,melbourne (vic&#44 australia),land,vic,au,Australia,unknown,20,20 seconds,Power failure due to craft flying overhead,8/16/2002,-37.813938,144.963425,1
08/06/2002 21:00:00,2002-08-06,2002,Aug,06,Tuesday,21:00:00,echuca (australia),land,vic,au,Australia,light,1200,20 minutes,Two hovering lights joined by a third dancing at about 100mtrs above the ground&#44 Echuca VIC Australia,5/24/2005,-36.140572,144.751846,1
08/08/2002 18:35:00,2002-08-08,2002,Aug,08,Thursday,18:35:00,canberra (australia),land,act,au,Australia,light,120,2 minuts,Two balls of light one after the other from the same star cluster. Both at high speed going in Different Directions,8/16/2002,-35.27603,149.13435,1
08/08/2002 19:00:00,2002-08-08,2002,Aug,08,Thursday,19:00:00,brisbane (qld&#44 australia),land,qld,au,Australia,formation,600,10 mins,Interesting formation over east coast Australia,10/15/2002,-27.47101,153.024292,1
08/09/2002 21:00:00,2002-08-09,2002,Aug,09,Friday,21:00:00,adelaide (south australia),land,sa,au,Australia,circle,5,5 seconds,I just saw it flying over our house,8/16/2002,-34.928661,138.598633,1
08/10/2002 21:00:00,2002-08-10,2002,Aug,10,Saturday,21:00:00,albury (nsw&#44 australia),land,nsw,au,Australia,circle,240,4 min,A ROUND ORANGE OBJECT COMING FROM THE NORTH GOING EAST AT ONE STAGE HOVERING AND THEN TRAVELING AT GREAT SPEED TO THE EAST AND AGAIN HO,8/28/2002,-36.07494,146.923935,1
08/11/2002 20:00:00,2002-08-11,2002,Aug,11,Sunday,20:00:00,perth (western australia),land,wa,au,Australia,circle,300,5 mins,three red&#44 circular objects,9/13/2002,-31.95224,115.861397,1
08/15/2002 23:50:00,2002-08-15,2002,Aug,15,Thursday,23:50:00,sydney (nsw&#44 australia),land,nsw,au,Australia,fireball,60,60 sec,the object was seen in the deep blue mountains of nsw sydney australia. the object was a large fireball and it made a verry loud high p,8/16/2002,-33.861481,151.205475,1
07/20/2001 04:00:00,2001-07-20,2001,Jul,20,Friday,4:00:00,berellan (australia),land,vic,au,Australia,light,120,2 minutes,It was brighter than a star. I thought it was the morning star&#44 but I then seen the morning star and this was longer and much brighter,8/5/2001,-34.284754,146.572214,1
09/12/2002 03:00:00,2002-09-12,2002,Sep,12,Thursday,3:00:00,adelaide (south australia),land,sa,au,Australia,light,300,5 mins,Orange oval shaped gas ball emits light beam.,10/28/2002,-34.928661,138.598633,1
10/10/2002 04:00:00,2002-10-10,2002,Oct,10,Thursday,4:00:00,adelaide (pt. wakefield) (south australia),land,sa,au,Australia,circle,600,10 mins,one light became 3,10/28/2002,-34.928661,138.598633,1
03/20/1974 15:30:00,1974-03-20,1974,Mar,20,Wednesday,15:30:00,palgarup (australia),land,wa,au,Australia,disk,90,90 seconds,A daylight sighting from 250 metres,3/19/2002,-34.2,116.166667,1
10/14/2002 12:25:00,2002-10-14,2002,Oct,14,Monday,12:25:00,brisbane (qld&#44 australia),land,qld,au,Australia,oval,20,20 seconds,i just got back from work. i was taking a shower and i heard a loud bang&#33 noise outside the back yard. my dog was barking. i thought it,10/15/2002,-27.47101,153.024292,1
10/15/2002 20:30:00,2002-10-15,2002,Oct,15,Tuesday,20:30:00,darwin (nt&#44 australia),land,nt,au,Australia,chevron,60,1min,two loud noises&#44 saw unusual lights in the sky not common for the area,10/15/2002,-12.45722,130.836639,1
08/03/2012 02:40:00,2012-08-03,2012,Aug,03,Friday,2:40:00,west wyalong (australia),land,nsw,au,Australia,triangle,45,35-45 sec,Folding triangular three dimensional type shapes that spark off blue/white electrical looking fields??,8/19/2012,-33.933333,147.25,1
10/27/2002 23:25:00,2002-10-27,2002,Oct,27,Sunday,23:25:00,perth (western australia),land,wa,au,Australia,unknown,40,40 seconds,UFO sighting in Kwinana Perth WA,10/28/2002,-31.95224,115.861397,1
11/01/2002 03:34:00,2002-11-01,2002,Nov,01,Friday,3:34:00,melbourne (vic&#44 australia),land,vic,au,Australia,triangle,600,10 min,the triangle shot across the sky with a huge roaring sound,4/22/2003,-37.813938,144.963425,1
11/01/2002 23:50:00,2002-11-01,2002,Nov,01,Friday,23:50:00,perth (western australia),land,wa,au,Australia,rectangle,90,90 seconds,The object seems to involve 3 lights. 2 at either side of the object which are always visible and turned red for about 10 seconds. The,11/9/2002,-31.95224,115.861397,1
11/10/2002 20:30:00,2002-11-10,2002,Nov,10,Sunday,20:30:00,queensland (australia),land,qld,au,Australia,unknown,90,1.5 mins,large light shot over sky.  Grew smaller and then disappered.  Didn&#39t match any  other thing I&#39ve ever seen before.,12/23/2002,-20.917574,142.702796,1
11/12/2002 20:00:00,2002-11-12,2002,Nov,12,Tuesday,20:00:00,adelaide (south australia),land,sa,au,Australia,light,15,10 to 15 seconds,three slow moving crafts all traveling in the same direction(north) and one that took off so fast it left a blue trail that lasted for,11/16/2002,-34.928661,138.598633,1
11/16/2002 14:56:00,2002-11-16,2002,Nov,16,Saturday,14:56:00,halls gap (near melbourne) (nsw&#44 australia),land,vic,au,Australia,sphere,30,30 seconds,Metallic sphere travelling West to East and the vertical at great speed,11/20/2002,-37.136631,142.520462,1
11/22/2002 13:00:00,2002-11-22,2002,Nov,22,Friday,13:00:00,canberra (australia),land,act,au,Australia,disk,60,1 minute,SCARY&#33,12/23/2002,-35.27603,149.13435,1
11/28/2002 10:30:00,2002-11-28,2002,Nov,28,Thursday,10:30:00,perth (western australia),land,wa,au,Australia,light,300,5 minutes,Four objects seen in daylight. Looked like stars&#44 were stationary and moved as a formation.,12/23/2002,-31.95224,115.861397,1
12/11/2002 04:00:00,2002-12-11,2002,Dec,11,Wednesday,4:00:00,sydney (nsw&#44 australia),land,nsw,au,Australia,changing,900,15 minutes,Four lights&#44 one approached me&#44 then retreated to group&#44 merged and then flew away.,12/23/2002,-33.861481,151.205475,1
10/28/2012 14:00:00,2012-10-28,2012,Oct,28,Sunday,14:00:00,west wyalong (australia),land,nsw,au,Australia,cigar,300,4-5 minutes,Chemtrail plane&#39s disguise ufo escort,10/30/2012,-33.933333,147.25,1
12/21/2002 10:00:00,2002-12-21,2002,Dec,21,Saturday,10:00:00,albury (nsw&#44 australia),land,nsw,au,Australia,light,300,5minutes,fast orange light almost like strobe light moving at great speed,12/23/2002,-36.07494,146.923935,1
12/20/1996 08:00:00,1996-12-20,1996,Dec,20,Friday,8:00:00,grenfell (australia),land,nsw,au,Australia,other,5,less than 5 seconds,in a matter of seconds it came spinning from nowhere and then sort of darted of to the other direction,2/18/2001,-33.895489,148.164383,1
09/10/2009 18:15:00,2009-09-10,2009,Sep,10,Thursday,18:15:00,wallacia (australia),land,nsw,au,Australia,triangle,300,5 minutes (approx.),Black triangle flying over,12/12/2009,-33.865768,150.640213,1
01/26/2008 21:45:00,2008-01-26,2008,Jan,26,Saturday,21:45:00,harris park (australia),land,nsw,au,Australia,sphere,600,10 minutes,3 objects of light seen in Harris Park&#44 Sydney Australia making no sounds as they fly,3/4/2008,-33.822345,151.009339,1
01/11/2003 21:00:00,2003-01-11,2003,Jan,11,Saturday,21:00:00,pemberton (western australia),land,wa,au,Australia,unknown,0.5,approx.1/2sec.,Brief flash of bright light in southern sky 60 degrees above the horizon.,3/21/2003,-34.443111,116.036888,1
01/17/2003 20:45:00,2003-01-17,2003,Jan,17,Friday,20:45:00,sydney (nsw&#44 australia),land,nsw,au,Australia,changing,120,2 minutes,UFO changing colour&#44 direction and maybe shape.,3/21/2003,-33.861481,151.205475,1
01/20/2003 15:30:00,2003-01-20,2003,Jan,20,Monday,15:30:00,byron bay (australia),land,nsw,au,Australia,sphere,420,7 minutes,six spheres emerge from cylindrical cigar shaped cloud,3/4/2003,-28.64201,153.611938,1
02/02/2003 02:00:00,2003-02-02,2003,Feb,02,Sunday,2:00:00,adelaide (australia),land,sa,au,Australia,cylinder,90,1.5 min,Small cylinder craft spinning around&#44 lights beaming off it&#44 small objects flew from the craft and fell somewhere&#33,9/4/2003,-34.928661,138.598633,1
02/06/2003 06:45:00,2003-02-06,2003,Feb,06,Thursday,6:45:00,geelong (vic&#44 australia),land,vic,au,Australia,teardrop,720,12 mins.,Looks like a sieve&#44 with blue light luminating from the cracks. Shaped like a teardrop.,3/21/2003,-38.153461,144.358093,1
02/07/2003 22:45:00,2003-02-07,2003,Feb,07,Friday,22:45:00,brisbane (qld&#44 australia),land,qld,au,Australia,triangle,60,1minute,Three circular lights in a perfectly formed triangular shape moved accross the sky at high speed before stopping and changing direction,3/21/2003,-27.47101,153.024292,1
02/11/2003 23:45:00,2003-02-11,2003,Feb,11,Tuesday,23:45:00,canberra (australia),land,act,au,Australia,formation,30,30 seconds,3 bright white circular objects flying in triangle shaped formation&#44 no sound and identification possible.,6/3/2003,-35.27603,149.13435,1
02/15/2003 03:45:00,2003-02-15,2003,Feb,15,Saturday,3:45:00,bendigo (australia),land,vic,au,Australia,light,10,10 seconds,A Bright star-like light moved in an arc across the sky and grew fainter as I watched. Duration 5-10 seconds,4/22/2003,-36.758179,144.280243,1
02/26/2003 21:30:00,2003-02-26,2003,Feb,26,Wednesday,21:30:00,dunsborough (western australia),land,wa,au,Australia,flash,3600,1 hour,Several flashes from a stationary point source of light  in the night sky seen over a period of time.,3/11/2003,-33.583333,115.083333,1
03/12/2003 20:21:00,2003-03-12,2003,Mar,12,Wednesday,20:21:00,broken hill (australia),land,nsw,au,Australia,light,300,3-5 min,bright light it travelled in one direction &#44 and changed suddenly  to another then vanished but it could be just made out,3/21/2003,-31.961729,141.459976,1
03/15/2003 18:00:00,2003-03-15,2003,Mar,15,Saturday,18:00:00,brisbane (qld&#44 australia),land,qld,au,Australia,fireball,1800,30min?,Silvery fireball with tail&#44 moving vey slowly toward western horizon&#44 visible for approx. 30 mins. at sundown&#44 Brisbane&#44Australia&#44 2003,8/28/2003,-27.47101,153.024292,1
04/01/1986 02:00:00,1986-04-01,1986,Apr,01,Tuesday,2:00:00,blacktown (suburb) (australia),land,nsw,au,Australia,triangle,4,2-4 seconds,STRANGE TRIANGLE WITH LIGHT TRAVELLING AT FAST SPEED LOW ALTITUDE AND NO SOUND,12/16/2005,-33.766667,150.916667,1
03/19/2003 08:50:00,2003-03-19,2003,Mar,19,Wednesday,8:50:00,canberra (australia),land,act,au,Australia,cigar,20,20seconds,A cigar shaped Ufo flew over my school with 5 witnesses and then it zoomed off,3/21/2003,-35.27603,149.13435,1
12/08/2006 15:35:00,2006-12-08,2006,Dec,08,Friday,15:35:00,emerton (australia),land,nsw,au,Australia,triangle,240,4 minutes,Sighting in australia,2/1/2007,-33.743189,150.808191,1
04/02/2003 16:30:00,2003-04-02,2003,Apr,02,Wednesday,16:30:00,brisbane (qld&#44 australia),land,qld,au,Australia,cylinder,300,5 mins,I&#39ve seen the 4 to 6 ft cyinder in Australia,10/7/2003,-27.47101,153.024292,1
04/02/2003 16:30:00,2003-04-02,2003,Apr,02,Wednesday,16:30:00,sydney (nsw&#44 australia),land,nsw,au,Australia,rectangle,990,16:30,the object was in a rectangular form and was hovering in the air for about 5 minutes then all of a sudden dissapeared,4/27/2003,-33.861481,151.205475,1
02/03/2013 04:30:00,2013-02-03,2013,Feb,03,Sunday,4:30:00,katoomba (australia),land,nsw,au,Australia,cone,180,2-3 minutes,Bright green cone shaped vibrating object.,2/18/2013,-33.713032,150.311737,1
04/15/2003 22:50:00,2003-04-15,2003,Apr,15,Tuesday,22:50:00,lake macquarie (nsw&#44 australia),land,nsw,au,Australia,egg,60,1 minute,Object enters with flash of light and explosion&#44flys&#44 hovers&#44exits with bang &amp; disappears&#44 3 sitings same location.,4/22/2003,-33.093373,151.588982,1
04/23/2003 01:34:00,2003-04-23,2003,Apr,23,Wednesday,1:34:00,sydney (nsw&#44 australia),land,nsw,au,Australia,light,21.45,21.45sec.,A wierd satelite or a UFO...,5/2/2003,-33.861481,151.205475,1
04/26/2003 21:00:00,2003-04-26,2003,Apr,26,Saturday,21:00:00,melbourne (vic&#44 australia),land,vic,au,Australia,light,15,10-15 seconds,appeared in one spot for 5 secs&#44 then went away fast My Mum and me could see  far away since it was a clear,4/27/2003,-37.813938,144.963425,1
04/26/2003 21:15:00,2003-04-26,2003,Apr,26,Saturday,21:15:00,adelaide (south australia),land,sa,au,Australia,fireball,5,5 seconds,we were standin on the driveway looked up and saw it come at a great speed hovered made a weird buzz sound shot off came back then went,5/9/2003,-34.928661,138.598633,1
01/10/2003 21:09:00,2003-01-10,2003,Jan,10,Friday,21:09:00,busselton (australia),land,wa,au,Australia,light,300,5minutes,3 light moviving erractically across the sky,3/21/2003,-33.652489,115.345497,1
05/21/2003 19:45:00,2003-05-21,2003,May,21,Wednesday,19:45:00,brisbane (qld&#44 australia),land,qld,au,Australia,fireball,5,05 seconds,Myself and one other person witnessed a LARGE fireball with a bright incandescant core and a long flaming tail pass overhead in a NNE h,5/27/2003,-27.47101,153.024292,1
05/23/2003 20:00:00,2003-05-23,2003,May,23,Friday,20:00:00,melbourne (vic&#44 australia),land,vic,au,Australia,disk,300,5 minutes,disk shaped object flashing colours very big&#44this report is true.,5/27/2003,-37.813938,144.963425,1
05/27/2003 17:30:00,2003-05-27,2003,May,27,Tuesday,17:30:00,central victoria (australia),land,vic,au,Australia,circle,300,5 min,One bright round light rising in the ENE then disappearing in an instant.,9/1/2004,-0.755775,33.438353,1
05/28/2003 18:55:00,2003-05-28,2003,May,28,Wednesday,18:55:00,perth (western australia),land,wa,au,Australia,triangle,20,20 seconds,Triangle shape object,6/3/2003,-31.95224,115.861397,1
05/31/2003 20:04:00,2003-05-31,2003,May,31,Saturday,20:04:00,wollongong (nsw&#44 australia),land,nsw,au,Australia,egg,120,2 minutes,Orange egg/oval shaped space craft shrinking and glowing bright and then changing color to red and looked like it was comming back and,6/3/2003,-34.424,150.893448,1
06/07/2003 23:12:00,2003-06-07,2003,Jun,07,Saturday,23:12:00,adelaide (south australia),land,sa,au,Australia,formation,900,15 mins,Huge glowing intense yellow orange oblong with many small round lights in formation.,7/16/2003,-34.928661,138.598633,1
06/11/2003 13:40:00,2003-06-11,2003,Jun,11,Wednesday,13:40:00,canberra (australia),land,act,au,Australia,changing,60,1 minute,A big triangle kept on changing colors and dissapering near my school&#44 it lasted at least 1 minute,6/18/2003,-35.27603,149.13435,1
06/14/2003 17:20:00,2003-06-14,2003,Jun,14,Saturday,17:20:00,brisbane (qld&#44 australia),land,qld,au,Australia,fireball,300,5min,very bright light 25deg above horizon&#44 near sunset. caught the attention of other motorist - suddenly vanished,6/18/2003,-27.47101,153.024292,1
11/23/2006 11:00:00,2006-11-23,2006,Nov,23,Thursday,11:00:00,ettalong beach nsw (australia),land,nsw,au,Australia,cigar,30,30 seconds,It was a clear Summer day and I had no alcohol in my system.,3/8/2007,-33.513633,151.335513,1
06/19/2003 19:45:00,2003-06-19,2003,Jun,19,Thursday,19:45:00,tasmania (australia),land,tas,au,Australia,other,900,15 mins,A star liked thing that was flashing really prominient colours and hovers for awhile then just goes black.,7/16/2003,-41.365042,146.628491,1
01/07/1967 21:30:00,1967-01-07,1967,Jan,07,Saturday,21:30:00,woy woy (australia),land,nsw,au,Australia,disk,300,5 minutes,Repeated sightings of similar UFO&#39s over a period of years always landing at one sight.,5/11/2005,-33.484329,151.324707,1
05/21/2006 16:00:00,2006-05-21,2006,May,21,Sunday,16:00:00,central coast (australia),land,nsw,au,Australia,light,2,few seconds,the shooting UFO,10/31/2008,-33.42979,151.371445,1
07/27/2003 20:00:00,2003-07-27,2003,Jul,27,Sunday,20:00:00,ocean shores (nsw&#44 australia),land,nsw,au,Australia,circle,300,half hour,Two UFO&#39s seen over Ocean Shores in Australia,8/4/2003,-28.52383,153.532227,1
08/09/2003 13:00:00,2003-08-09,2003,Aug,09,Saturday,13:00:00,sydney (nsw&#44 australia),land,nsw,au,Australia,disk,30,30 seconds,Metalic object seen near Sydney,10/15/2003,-33.861481,151.205475,1
08/15/2003 01:30:00,2003-08-15,2003,Aug,15,Friday,1:30:00,lake macquarie (nsw&#44 australia),land,nsw,au,Australia,oval,900,15 mins,Very Distinctive and large glistening orange oval shaped craft hovering above us in our home city skies,8/28/2003,-33.093373,151.588982,1
01/04/2004 20:44:00,2004-01-04,2004,Jan,04,Sunday,20:44:00,gosford (australia),land,nsw,au,Australia,light,2700,45min,3 lighted aircraft.. move about 3km from West to East  from about 30sec to 1 minute.,4/9/2004,-33.4244,151.343994,1
08/18/2003 07:00:00,2003-08-18,2003,Aug,18,Monday,7:00:00,adelaide (south australia),land,sa,au,Australia,disk,10,10sec,Oz- Adelaide TV News station airs vivid close up video of UK saucer,8/28/2003,-34.928661,138.598633,1
01/19/2009 04:00:00,2009-01-19,2009,Jan,19,Monday,4:00:00,gosford (australia),land,nsw,au,Australia,light,60,60sec,BRIGHT LIGHT FALLS FROM THE SKY,3/19/2009,-33.4244,151.343994,1
09/25/2003 22:35:00,2003-09-25,2003,Sep,25,Thursday,22:35:00,sydney (nsw&#44 australia),land,nsw,au,Australia,egg,20,20 sec,3 Weakly lit egg shapes in tight formation.,10/7/2003,-33.861481,151.205475,1
10/07/2003 01:30:00,2003-10-07,2003,Oct,07,Tuesday,1:30:00,perth (western australia),land,wa,au,Australia,triangle,1,1 second,1 mile away on the other side of the Canning River at 1:30am,10/31/2003,-31.95224,115.861397,1
10/20/2003 07:35:00,2003-10-20,2003,Oct,20,Monday,7:35:00,sydney (nsw&#44 australia),land,nsw,au,Australia,unknown,300,4 or 5 minutes,Australian UFO sighting,10/31/2003,-33.861481,151.205475,1
11/04/2003 22:52:00,2003-11-04,2003,Nov,04,Tuesday,22:52:00,adelaide (south australia),land,sa,au,Australia,light,900,15 minutes,A bright white light with purple/blue glow.  Got Big.,11/8/2003,-34.928661,138.598633,1
11/05/2003 11:30:00,2003-11-05,2003,Nov,05,Wednesday,11:30:00,esperance (australia),land,wa,au,Australia,teardrop,20,20 seconds,White spot&#44 moving in one direction and at a slow pace.   No defining shape&#44 just a spot.,12/19/2003,-33.86013,121.882591,1
03/12/2008 14:00:00,2008-03-12,2008,Mar,12,Wednesday,14:00:00,longjetty (australia),land,nsw,au,Australia,disk,2,a few seconds,My friend and I were on the bus going home from school when we saw something hovering in mid-air&#44 we first thought it was a kite&#44 but t,10/31/2008,-33.359625,151.483792,1
02/26/2006 04:40:00,2006-02-26,2006,Feb,26,Sunday,4:40:00,berkeley vale (australia),land,nsw,au,Australia,light,10,about 10 seconds,A light appeared into view of my Handy Cam then dissappeared the same way as it came into view.,5/15/2006,-33.35,151.433333,1
11/16/2003 11:05:00,2003-11-16,2003,Nov,16,Sunday,11:05:00,melbourne (vic&#44 australia),land,vic,au,Australia,disk,60,1 min,bright glowwing yellow lights,11/26/2003,-37.813938,144.963425,1
12/01/2003 16:24:00,2003-12-01,2003,Dec,01,Monday,16:24:00,melbourne (vic&#44 australia),land,vic,au,Australia,formation,600,10 mins,formation of disc shaped crafts in australia,12/9/2003,-37.813938,144.963425,1
12/04/2003 03:00:00,2003-12-04,2003,Dec,04,Thursday,3:00:00,sydney (nsw&#44 australia),land,nsw,au,Australia,unknown,60,about minute,Unidentified Explosion,12/9/2003,-33.861481,151.205475,1
09/28/2013 18:50:00,2013-09-28,2013,Sep,28,Saturday,18:50:00,wyong (australia),land,nsw,au,Australia,light,90,90 seconds,fast moving light followed by 3 others,9/30/2013,-33.28273,151.4254,1
12/07/2003 21:00:00,2003-12-07,2003,Dec,07,Sunday,21:00:00,cairns (qld&#44 australia),land,qld,au,Australia,unknown,300,5 mins,Red Star like object that changes color flies at intense high speed in zigzag direction and circular motion.,12/9/2003,-16.92304,145.766251,1
11/13/2007 01:30:00,2007-11-13,2007,Nov,13,Tuesday,1:30:00,kulnura (australia),land,nsw,au,Australia,light,600,10 minutes,Pulsating light dissappeared glided across sky&#44 descended&#44 dissappeared&#44 reappeared,11/28/2007,-33.224584,151.221857,1
12/19/2003 03:10:00,2003-12-19,2003,Dec,19,Friday,3:10:00,brisbane (qld&#44 australia),land,qld,au,Australia,other,300,5 minutes,2 objects moving at unusually slow speed one blue with trail&#44 one whitish no trail,1/17/2004,-27.47101,153.024292,1
12/24/2003 22:00:00,2003-12-24,2003,Dec,24,Wednesday,22:00:00,sydney (nsw&#44 australia),land,nsw,au,Australia,cigar,300,5 minutes,Above Sydney Harbour bridge&#44 2 pics taken 5 minutes apart during motorcycle film shoot. 5 megapixel Digital camera&#44 UFO only noted some,2/12/2004,-33.861481,151.205475,1
12/24/2003 23:30:00,2003-12-24,2003,Dec,24,Wednesday,23:30:00,bowral (nsw&#44 australia),land,nsw,au,Australia,light,120,2 mins,two lights that crossed over each other in the sky then they disapared.,1/17/2004,-34.477501,150.420395,1
06/01/1972 08:00:00,1972-06-01,1972,Jun,01,Thursday,8:00:00,molong (australia),land,nsw,au,Australia,disk,10,10sec&#39s,shiny&#44 like floro light on in sunlight&#44 40&#39long by 20&#39high craft&#44 3 tall 8&#39 men&#44 same glow as ship. 1 walking around 2 ea. side of ship,6/18/2003,-33.090969,148.869965,1
12/30/2003 01:00:00,2003-12-30,2003,Dec,30,Tuesday,1:00:00,western queensland (qld&#44 australia),land,qld,au,Australia,light,900,15 mins,Two bright lights hovering one had a flashing red light,1/17/2004,-23.568135,140.679376,1
01/04/2004 19:30:00,2004-01-04,2004,Jan,04,Sunday,19:30:00,queensland (qld&#44 australia),land,qld,au,Australia,light,36000,10hrs,have it on tape,5/4/2004,-20.917574,142.702796,1
06/01/1995 23:00:00,1995-06-01,1995,Jun,01,Thursday,23:00:00,whyalla (australia),land,sa,au,Australia,rectangle,300,5 minutes,Lights in the sky,6/12/2007,-33.032681,137.564835,1
01/08/2004 20:00:00,2004-01-08,2004,Jan,08,Thursday,20:00:00,bundaberg (australia),land,qld,au,Australia,light,600,10mins,fast hovering lights on the beach,10/8/2007,-24.866211,152.3479,1
01/12/2004 21:22:00,2004-01-12,2004,Jan,12,Monday,21:22:00,canberra (australia),land,act,au,Australia,circle,60,1.oo,UFO seen in the night sky by father and son in Canberra - Australia,5/24/2005,-35.27603,149.13435,1
01/20/2004 20:30:00,2004-01-20,2004,Jan,20,Tuesday,20:30:00,bathurst (australia),land,nsw,au,Australia,rectangle,30,less than 30 seconds,Medium paced object  moving accross the sky with a constant length trail of light following behind it and the UFOeventually dissapears.,5/24/2005,-33.417358,149.581284,1
08/18/2002 22:30:00,2002-08-18,2002,Aug,18,Sunday,22:30:00,whyalla (australia),land,sa,au,Australia,teardrop,300,5 minutes,amazing&#44 never seen anything like it,8/28/2002,-33.032681,137.564835,1
04/17/1999 20:00:00,1999-04-17,1999,Apr,17,Saturday,20:00:00,cessnock (australia),land,nsw,au,Australia,oval,3600,1hr30,There were about 6or7 flying at a distance&#44 Oval &amp; dark in shape with pipe work on outside.,4/27/2007,-32.832111,151.356232,1
02/01/2004 07:33:00,2004-02-01,2004,Feb,01,Sunday,7:33:00,melbourne (australia),land,vic,au,Australia,unknown,120,a few minutes.,Me and my friend were playing basketball in the backyard when my mate said &#39Whats That?&quot; I looked around to see a glowing light in the,2/14/2006,-37.813938,144.963425,1
02/02/2004 18:30:00,2004-02-02,2004,Feb,02,Monday,18:30:00,melbourne (vic&#44 australia),land,vic,au,Australia,disk,180,3 mins,3 big white disks&#44 shot into the sky and out of sight within 4-5 second when I approached.,2/12/2004,-37.813938,144.963425,1
03/05/2004 22:30:00,2004-03-05,2004,Mar,05,Friday,22:30:00,gold coast (australia),land,qld,au,Australia,light,3,3 seconds,It was a very stormy night with alot of rain.  It was one of the worst storms seem in the Gold Coast Queensland Australia in a long tim,5/15/2006,-28.00029,153.430878,1
03/14/2004 12:24:00,2004-03-14,2004,Mar,14,Sunday,12:24:00,perth (western australia),land,wa,au,Australia,disk,300,5 minutes,v formation from hill hovered flew away,3/17/2004,-31.95224,115.861397,1
03/15/2004 20:00:00,2004-03-15,2004,Mar,15,Monday,20:00:00,adelaide  (south australia),land,sa,au,Australia,formation,10800,1-3 hrs,ive got three different cases to report.The first involved 2 silver craft that were so high up one had to strain their eyes to see,5/15/2006,-34.928661,138.598633,1
03/18/2004 16:15:00,2004-03-18,2004,Mar,18,Thursday,16:15:00,melbourne (vic&#44 australia),land,vic,au,Australia,triangle,180,3 minutes,Extremely high&#44barely visible&#44sudden change of direction&#44 change of light colour from white to amber.,3/23/2004,-37.813938,144.963425,1
04/17/2013 20:53:00,2013-04-17,2013,Apr,17,Wednesday,20:53:00,mandurah (australia),land,wa,au,Australia,disk,1200,20 min,Green glowing UFO with blue spot light,9/30/2013,-32.526901,115.721703,1
04/18/2004 12:34:00,2004-04-18,2004,Apr,18,Sunday,12:34:00,sydney (nsw&#44 australia),land,nsw,au,Australia,light,86400,day,It was a bright object in the air&#44 like a star&#44 i was in the car staring at it before buildings got in the way&#44  after it was gone&#33,4/27/2004,-33.861481,151.205475,1
04/25/2004 20:30:00,2004-04-25,2004,Apr,25,Sunday,20:30:00,adelaide  (south australia),land,sa,au,Australia,circle,180,2-3minutes,1 cluster of white lights surrounded by 2 larger circles of lights&#44 all flashing and rotating it was the base of something very large,4/30/2004,-34.928661,138.598633,1
05/12/2004 02:00:00,2004-05-12,2004,May,12,Wednesday,2:00:00,brisbane (qld&#44 australia),land,qld,au,Australia,light,4,4 seconds,quick flash of light that was unbearable,6/4/2004,-27.47101,153.024292,1
05/12/2004 23:00:00,2004-05-12,2004,May,12,Wednesday,23:00:00,sydney (nsw&#44 australia),land,nsw,au,Australia,light,345600,4 days+,Infra red light photographs (invisible) taken over 4 days may 04 and I day january 05 in same location,5/24/2005,-33.861481,151.205475,1
05/13/2004 04:00:00,2004-05-13,2004,May,13,Thursday,4:00:00,melbourne (vic&#44 australia),land,vic,au,Australia,disk,900,15 mins,disc type object sighted along the coast of melbourne&#44 AU south eastern area. 4 object&#44 similar size&#44 moving at a slow pace but quick.,6/4/2004,-37.813938,144.963425,1
05/14/2004 22:30:00,2004-05-14,2004,May,14,Friday,22:30:00,melbourne (vic&#44 australia),land,vic,au,Australia,light,240,4minutes,Stationary light turns and moves away a high speed,6/4/2004,-37.813938,144.963425,1
06/17/2004 18:15:00,2004-06-17,2004,Jun,17,Thursday,18:15:00,sydney (kings langley) (nsw&#44 australia),land,nsw,au,Australia,triangle,7,7 seconds,High-speed&#44 silent triangular formation of lights,7/8/2004,-33.861481,151.205475,1
06/19/2004 01:02:00,2004-06-19,2004,Jun,19,Saturday,1:02:00,devon meadows (vic&#44 australia),land,vic,au,Australia,other,3,3 seconds,Big&#44 very bright and extremly fast.,6/23/2004,-38.166667,145.3,1
06/10/2002 00:00:00,2002-06-10,2002,Jun,10,Monday,0:00:00,mudgee (australia),land,nsw,au,Australia,cone,300,5 minutes,UFO NSW Farmer 2002,7/8/2004,-32.433333,149.583333,1
07/01/2004 19:00:00,2004-07-01,2004,Jul,01,Thursday,19:00:00,brisbane (australia),land,qld,au,Australia,rectangle,60,1minute,molten steel,11/28/2007,-27.47101,153.024292,1
07/09/2004 15:00:00,2004-07-09,2004,Jul,09,Friday,15:00:00,melbourne (vic&#44 australia),land,vic,au,Australia,unknown,180,2-3 minutes,:Light waking me up in my bedroom...Huge force of gravity stopping me from running away&#44 and some sort of sleep powder/gas or whatever,7/25/2004,-37.813938,144.963425,1
08/01/2004 05:00:00,2004-08-01,2004,Aug,01,Sunday,5:00:00,melbourne (vic&#44 australia),land,vic,au,Australia,triangle,900,15min,i was driving home&#44 and i saw this huge white light hovering in the shy&#44 at first i thought it must of been a plane&#44i pulled over and g,8/11/2004,-37.813938,144.963425,1
08/01/2004 12:30:00,2004-08-01,2004,Aug,01,Sunday,12:30:00,sydney (nsw&#44 australia),land,nsw,au,Australia,oval,60,1 minute,3 balck objects to the S&#44E&#44 one big 2 small&#44 going aprox 300kmph. weird&#33,8/11/2004,-33.861481,151.205475,1
08/01/2004 12:45:00,2004-08-01,2004,Aug,01,Sunday,12:45:00,sydney (nsw)  (australia),land,nsw,au,Australia,fireball,360,6min,Fireballs dance in the sky  over Sydney Australia,8/11/2004,-33.861481,151.205475,1
08/08/2004 16:30:00,2004-08-08,2004,Aug,08,Sunday,16:30:00,melbourne (vic&#44 australia),land,vic,au,Australia,disk,10,10 sec,We were at Tullamarine airport in Melbourne waiting for a relatives flight from Queensland to arrive. I was filming aircraft taking off,8/11/2004,-37.813938,144.963425,1
11/01/2004 02:36:00,2004-11-01,2004,Nov,01,Monday,2:36:00,denman (australia),land,nsw,au,Australia,egg,600,10 minutes,Green&#44 egg shaped glowing objects in sky. Hovering around southern cross star constelation. We were not under the influence of any ille,11/2/2004,-32.387878,150.689346,1
08/24/2004 22:10:00,2004-08-24,2004,Aug,24,Tuesday,22:10:00,melbourne (vic&#44 australia),land,vic,au,Australia,light,300,5 min,six orange lights hovered for a few minutes,8/24/2004,-37.813938,144.963425,1
09/02/2004 01:45:00,2004-09-02,2004,Sep,02,Thursday,1:45:00,adelaide  (south australia),land,sa,au,Australia,light,35,35 second,bright and very fast light over adelaide.,9/9/2004,-34.928661,138.598633,1
09/10/2004 06:46:00,2004-09-10,2004,Sep,10,Friday,6:46:00,launceston (tas&#44 australia),land,tas,au,Australia,oval,240,4 minutes,3 blue ships,11/9/2004,-41.438759,147.134674,1
09/14/2004 02:00:00,2004-09-14,2004,Sep,14,Tuesday,2:00:00,launceston (tas&#44 australia),land,tas,au,Australia,other,3600,1 hour or so,to the east of tasmania&#44 australia,9/29/2004,-41.438759,147.134674,1
09/21/2004 01:20:00,2004-09-21,2004,Sep,21,Tuesday,1:20:00,perth (western australia),land,wa,au,Australia,other,1200,20mins,invisible UFO??,9/29/2004,-31.95224,115.861397,1
12/24/2013 17:30:00,2013-12-24,2013,Dec,24,Tuesday,17:30:00,port kennedy,land,wa,au,Australia,light,180,~3 minutes,Bright light over Port Kennedy Western Australia that rose up and then travelled in a straight line above our heads and into the distan,1/10/2014,-32.366464,115.755576,1
07/17/2005 19:35:00,2005-07-17,2005,Jul,17,Sunday,19:35:00,warnbro (australia),land,wa,au,Australia,light,10,10 seconds,was on the phone outside and looked up at the sky and saw this light it was to high in the sky to be a plane it was the hight of the st,9/2/2005,-32.336111,115.748611,1
10/30/2004 20:00:00,2004-10-30,2004,Oct,30,Saturday,20:00:00,brisbane (qld&#44 australia),land,qld,au,Australia,fireball,600,10minutes,UFO sighting Springfield Queensland Australia.As I was having a breath of fresh evening air on the veranda I suddenly turned my hea,11/2/2004,-27.47101,153.024292,1
07/27/2001 21:30:00,2001-07-27,2001,Jul,27,Friday,21:30:00,rockingham (australia),land,wa,au,Australia,circle,300,5minutes,Two yellow lights that floated above our house the faded off,8/5/2001,-32.276821,115.729782,1
11/04/2004 21:15:00,2004-11-04,2004,Nov,04,Thursday,21:15:00,brisbane (qld&#44 australia),land,qld,au,Australia,,60,1 min,three lights jumping fast across the sky,11/9/2004,-27.47101,153.024292,1
11/11/2004 02:00:00,2004-11-11,2004,Nov,11,Thursday,2:00:00,brisbane (qld&#44 australia),land,qld,au,Australia,circle,10,10sec,It was a huge black round thing and it was leaving a green trail of smoke behind it.  It made a buzzing sound.,12/3/2004,-27.47101,153.024292,1
09/15/2013 18:45:00,2013-09-15,2013,Sep,15,Sunday,18:45:00,rockingham (australia),land,wa,au,Australia,fireball,360,6 minutes,We saw a burning orange circular object in the sky that looked like it burned up as it entered the atmosphere then returned to space.,9/30/2013,-32.276821,115.729782,1
12/04/2004 23:00:00,2004-12-04,2004,Dec,04,Saturday,23:00:00,geelong (australia),land,vic,au,Australia,light,300,5 minutes,3 Lights in Triangular Formation Moving Accross The Sky  ((NUFORC Note:  U. S. Navy &quot;NOSS&quot; satellites??  PD)),12/14/2004,-38.153461,144.358093,1
12/06/2004 04:00:00,2004-12-06,2004,Dec,06,Monday,4:00:00,richmond (australia),land,vic,au,Australia,unknown,600,10min,Bright lights and shaking New South Wales Australia 6th December 2004,12/14/2004,-37.833333,145,1
12/29/2004 22:00:00,2004-12-29,2004,Dec,29,Wednesday,22:00:00,sydney (australia),land,nsw,au,Australia,diamond,600,10 minutes,4 people saw 2 massive&#44 purple diamond lights in the sky.,5/15/2006,-33.861481,151.205475,1
05/13/2001 22:00:00,2001-05-13,2001,May,13,Sunday,22:00:00,dubbo (australia),land,nsw,au,Australia,fireball,600,10mins,it was the scariest thing i&#39d ever seen.,8/5/2001,-32.24295,148.604843,1
06/24/2009 16:30:00,2009-06-24,2009,Jun,24,Wednesday,16:30:00,dubbo (australia),land,nsw,au,Australia,circle,600,10min.,two round silver craft enormous speed &#44stopped hovered at on place &#44one disappeared.lost sight due to trees.both crafts had very sm,8/5/2009,-32.24295,148.604843,1
01/19/2005 00:45:00,2005-01-19,2005,Jan,19,Wednesday,0:45:00,melbourne (australia),land,vic,au,Australia,light,600,10-10 minutes,3 bright lights seen overheard at different times above Port Phillip bay&#44 Australia. Near Southern Cross and Big Dipper.,2/14/2006,-37.813938,144.963425,1
02/15/2005 23:00:00,2005-02-15,2005,Feb,15,Tuesday,23:00:00,adelaide  (south australia),land,sa,au,Australia,other,15,15 sec,TWO VERY LARGE  FLYING WINGS FLYING FROM WEST TO EAST,2/22/2005,-34.928661,138.598633,1
03/04/2005 20:25:00,2005-03-04,2005,Mar,04,Friday,20:25:00,canberra (australia),land,act,au,Australia,circle,480,8 minutes,Object stops still in the sky&#44 changes trajectory and flies back in the opposite direction only to disappear.,5/11/2005,-35.27603,149.13435,1
03/04/2005 22:00:00,2005-03-04,2005,Mar,04,Friday,22:00:00,sydney (west) (nsw&#44 australia),land,nsw,au,Australia,flash,2,2 secs,bright orange moving flash???,5/11/2005,-33.861481,151.205475,1
03/05/2005 20:00:00,2005-03-05,2005,Mar,05,Saturday,20:00:00,gold coast (qld&#44 australia),land,qld,au,Australia,light,300,3 - 5 mins,Moving very slow and then very fast&#44 traveling around planets and then speeding up.,5/11/2005,-28.00029,153.430878,1
12/24/1999 23:30:00,1999-12-24,1999,Dec,24,Friday,23:30:00,armadale (australia),land,wa,au,Australia,cigar,12,12 seconds,A cigar shaped object beaming across the sky with a trail following.,10/12/2001,-32.15,116,1
03/08/2005 23:30:00,2005-03-08,2005,Mar,08,Tuesday,23:30:00,brisbane (bay area) (qld&#44 australia),land,qld,au,Australia,light,600,10 mins,2 Organe lights&#44 Southern and Eastern horzions.,9/2/2005,-27.47101,153.024292,1
08/18/2005 07:30:00,2005-08-18,2005,Aug,18,Thursday,7:30:00,armadale (australia),land,wa,au,Australia,other,300,5mins,At first we thought it was a baloon&#44 but we saw it so something i&#39ve never thought a baloon was capable of.,10/11/2005,-32.15,116,1
03/16/2013 22:30:00,2013-03-16,2013,Mar,16,Saturday,22:30:00,armadale (australia),land,wa,au,Australia,light,5,2-5 seconds,UFO in Armadale Western Australia&#44 the sighting was around about 10:30ish at night&#44 the date was 03/16/13.,5/15/2013,-32.15,116,1
01/01/1996 03:00:00,1996-01-01,1996,Jan,01,Monday,3:00:00,hamilton hill (australia),land,wa,au,Australia,unknown,900,15 mins,it came to me in the form of a dream. i was looking out side my windows of my bedroom and i saw 3 grey beings. they seemed to be about,11/28/2007,-32.075542,115.779634,1
03/25/2005 00:00:00,2005-03-25,2005,Mar,25,Friday,0:00:00,melbourne (vic&#44 australia),land,vic,au,Australia,triangle,1200,20 minutes,3 green lights in a triangular formation.,4/16/2005,-37.813938,144.963425,1
03/31/2005 20:30:00,2005-03-31,2005,Mar,31,Thursday,20:30:00,brisbane (qld&#44 australia),land,qld,au,Australia,,300,5 minutes,Light in the sky that jumped around erratically&#44 too fast and erratic for a helicoper or plane.,4/16/2005,-27.47101,153.024292,1
04/01/2005 21:45:00,2005-04-01,2005,Apr,01,Friday,21:45:00,townsville (australia),land,qld,au,Australia,light,300,about 3- 5 min,UFO over townsville Australia,4/16/2005,-19.26639,146.805695,1
04/05/2005 00:00:00,2005-04-05,2005,Apr,05,Tuesday,0:00:00,northam (australia),land,wa,au,Australia,disk,6,about half an hour,5 disk shaped objects flying north towards kalbarie&#44 it was the scaries thing i had ever seen&#44 it seemed to glow a yellowie greenish co,12/16/2005,-31.649321,116.674232,1
04/16/2005 16:30:00,2005-04-16,2005,Apr,16,Saturday,16:30:00,adelaide  (south australia),land,sa,au,Australia,unknown,600,10 minutes,At first it looked like two baloons spinning around each other I couldn&#39t tell just what it was so I ran to get my camera so I could st,6/20/2005,-34.928661,138.598633,1
04/20/2005 06:30:00,2005-04-20,2005,Apr,20,Wednesday,6:30:00,adelaide  (south australia),land,sa,au,Australia,disk,300,5 min,I saw a disc object with a green glow underneath&#44 I then saw a flash of green light and passed out for 2 hours,6/20/2005,-34.928661,138.598633,1
04/28/2005 20:13:00,2005-04-28,2005,Apr,28,Thursday,20:13:00,townsville (australia),land,qld,au,Australia,disk,60,1minute,Circular saucer type craft with lights flashing in a rotatry circular fashion whilst driving in east Australia&#44 then it disappeared,5/11/2005,-19.26639,146.805695,1
05/04/2005 22:30:00,2005-05-04,2005,May,04,Wednesday,22:30:00,townsville (australia),land,qld,au,Australia,other,1500,around 25 mins,Strange&#44 motionless&#44 flickering coloured lights over townsville australia.,5/11/2005,-19.26639,146.805695,1
05/06/2005 18:30:00,2005-05-06,2005,May,06,Friday,18:30:00,emerald (near) (qld&#44 australia),land,qld,au,Australia,triangle,120,2 minutes,Seen a large black object in the sky with red lights at each point.,5/11/2005,-37.931671,145.440933,1
06/01/2005 23:00:00,2005-06-01,2005,Jun,01,Wednesday,23:00:00,tasmania (australia),land,tas,au,Australia,disk,600,10 mins,((HOAX??))  Hi me and a friend were walking to the bottle shop and heard a noise looked up.,4/17/2008,-41.365042,146.628491,1
06/07/2005 09:30:00,2005-06-07,2005,Jun,07,Tuesday,9:30:00,launceston (tas&#44 australia),land,tas,au,Australia,oval,120,2min,strange thing in australia,6/20/2005,-41.438759,147.134674,1
06/08/2005 20:20:00,2005-06-08,2005,Jun,08,Wednesday,20:20:00,tweed heads (australia),land,nsw,au,Australia,circle,900,15 minutes,Two groups of orange lights&#44lots of people saw them,6/20/2005,-28.17561,153.542007,1
06/09/2005 20:00:00,2005-06-09,2005,Jun,09,Thursday,20:00:00,melbourne (vic&#44 australia),land,vic,au,Australia,circle,18000,5 hours +,UFO sighted from Melbourne suburb&#44 Australia.,6/20/2005,-37.813938,144.963425,1
06/11/2005 18:00:00,2005-06-11,2005,Jun,11,Saturday,18:00:00,batemans bay (nsw&#44 australia),land,nsw,au,Australia,light,5,5 sec,softball size super white light very fast,6/20/2005,-35.706581,150.175415,1
06/12/2002 22:00:00,2002-06-12,2002,Jun,12,Wednesday,22:00:00,port macquarie (australia),land,nsw,au,Australia,circle,30,30 sec,About 10pm one night as I was sitting at the back porch I glanced up to see a round black disc surrounded by a halo or aura silently fl,5/4/2004,-31.43084,152.908936,1
06/04/2013 18:30:00,2013-06-04,2013,Jun,04,Tuesday,18:30:00,port macquarie (australia),land,nsw,au,Australia,triangle,900,10-15 minutes,Two red one white light Triangle formation UFO in NSW&#44 Australia (following/looking for something),7/3/2013,-31.43084,152.908936,1
06/30/2005 18:10:00,2005-06-30,2005,Jun,30,Thursday,18:10:00,sydney (australia),land,nsw,au,Australia,fireball,600,10 minutes,A huge fireball&#44 that was travlling amasingly slow&#44 at an extreemly low altitude&#44 just above a house and some large tree&#39s,10/30/2006,-33.861481,151.205475,1
06/02/1996 00:00:00,1996-06-02,1996,Jun,02,Sunday,0:00:00,kambalda (western australia),land,wa,au,Australia,sphere,900,15 min,IT WAS A WINTER MORNING&#44THE REMNENTS OF A CYCLONE HAD LEFT A LOT OF WATER AROUND THE SMALL MINNING TOWN OF KAMBALDA .MY FRIEND AND I WE,6/18/2004,-31.201651,121.67083,1
07/05/2005 19:48:00,2005-07-05,2005,Jul,05,Tuesday,19:48:00,brisbane (qld&#44 australia),land,qld,au,Australia,disk,120,19:48 - 19:50,Kept flying then vanished after certain amount of time,7/13/2005,-27.47101,153.024292,1
07/13/2005 01:30:00,2005-07-13,2005,Jul,13,Wednesday,1:30:00,sydney (nsw&#44 australia),land,nsw,au,Australia,fireball,420,7min,Orange ball of light with no tail traveled from North East to South West and disappeared.There was no visable trail on the orange b,7/13/2005,-33.861481,151.205475,1
10/05/2006 22:00:00,2006-10-05,2006,Oct,05,Thursday,22:00:00,kalgoorlie (australia),land,wa,au,Australia,light,240,3-4 mins,seen in kalgoorlie Australia  2 star shaped lights (flashing),10/30/2006,-30.747007,121.474861,1
07/23/2005 00:00:00,2005-07-23,2005,Jul,23,Saturday,0:00:00,newcastle (australia),land,nsw,au,Australia,disk,30,30 seconds,saucer shaped&#39 had lights&#39 and was large and spining slowly.,5/15/2006,-32.927792,151.784485,1
06/16/2003 17:00:00,2003-06-16,2003,Jun,16,Monday,17:00:00,armidale (australi),land,nsw,au,Australia,disk,1200,20 minutes,A Disk/cigar shaped object &#44100m in lenght &#44 bright orange to silver in colour&#44 splits into 2 craft then reforms as one.,8/11/2004,-30.514342,151.666964,1
07/25/2005 20:47:00,2005-07-25,2005,Jul,25,Monday,20:47:00,emerald (qld&#44 australia),land,qld,au,Australia,chevron,180,approx 3 minutes,Black Chevron shape about 150 feet above me&#44 all noise and sound ceased.,9/2/2005,-37.931671,145.440933,1
07/31/2005 07:00:00,2005-07-31,2005,Jul,31,Sunday,7:00:00,sydney (nsw&#44 australia),land,nsw,au,Australia,light,20,15-20 seconds,intense white object....like a shining star but slowly moving across the sky. Smaller than  a 747 plane.,10/11/2005,-33.861481,151.205475,1
04/07/2003 21:00:00,2003-04-07,2003,Apr,07,Monday,21:00:00,armidale (australia),land,nsw,au,Australia,light,600,10 minutes,8 rapidly moving lights over Armidale,2/22/2005,-30.50828,151.671234,1
08/23/2005 14:00:00,2005-08-23,2005,Aug,23,Tuesday,14:00:00,melbourne (vic&#44 australia),land,vic,au,Australia,other,5,5 seconds,a dieing star moving in normal day light?,10/11/2005,-37.813938,144.963425,1
08/27/2005 20:15:00,2005-08-27,2005,Aug,27,Saturday,20:15:00,hobart (tasmania&#44 australia),land,tas,au,Australia,formation,900,15 mins.,Moving orange stars in random formation moving north to south white aura when moving through cloud,9/2/2005,-42.883209,147.331665,1
09/13/2005 01:40:00,2005-09-13,2005,Sep,13,Tuesday,1:40:00,adelaide  (south australia),land,sa,au,Australia,teardrop,120,few minutes,tear drop fast ships,10/11/2005,-34.928661,138.598633,1
06/27/2001 18:45:00,2001-06-27,2001,Jun,27,Wednesday,18:45:00,coffs harbour (australia),land,nsw,au,Australia,circle,90,1.5min,Bright orange light&#44 rounded in shape seen by five people moving north at about 60km p/h keeping the same course and altitude.,8/20/2001,-30.296261,153.11351,1
02/24/2007 10:30:00,2007-02-24,2007,Feb,24,Saturday,10:30:00,coffs harbour (australia),land,nsw,au,Australia,light,240,4 minutes,Two Strange Bright Lights&#44 Change Shape on Departure from Atmosphere,2/24/2007,-30.296261,153.11351,1
11/06/2005 20:25:00,2005-11-06,2005,Nov,06,Sunday,20:25:00,sydney (australia),land,nsw,au,Australia,circle,6,6 seconds,Bright White cigar shaped object with a long tail of Bright white sparks was clearly seen in twilight conditions&#44decent was similar tra,12/16/2005,-33.861481,151.205475,1
11/12/2005 10:45:00,2005-11-12,2005,Nov,12,Saturday,10:45:00,wagga wagga (nsw&#44 australia),land,nsw,au,Australia,formation,600,10:00,unexplained light formation,12/16/2005,-35.125771,147.353745,1
11/15/2005 00:30:00,2005-11-15,2005,Nov,15,Tuesday,0:30:00,brisbane (australia),land,qld,au,Australia,triangle,15,15 seconds,it was really dark and there was 2 UFOs in the sky&#44 then my car went dead for around 15 sec&#44 when it came back on&#44 it had gone,2/1/2007,-27.47101,153.024292,1
11/20/2005 20:00:00,2005-11-20,2005,Nov,20,Sunday,20:00:00,cairns (australia),land,qld,au,Australia,light,900,15 minutes,three lighted object hovering down the street,12/16/2005,-16.92304,145.766251,1
